"School.Name","County","School.Code","School.ID","County.Number","FIPS.State.Code","ZIP","Address","City","State","Longitude","Latitude","Total.Students","Free.Lunch","Reduced.price.Lunch","Total.Free.and.Reduced.Lunch","Full.Time.Equivalent.Teachers","Pupil.Teacher.Ratio"
"A G COX MIDDLE","PITT COUNTY","740302",3.70001e+11,37147,37,28590,"2657 CHURCH ST","WINTERVILLE","NC ",-77.4011,35.5245,841,311,43,354,47.05,17.87
"A H SNIPES ACADEMY OF ARTS/DES","NEW HANOVER COUNTY","650384",3.70333e+11,37129,37,28405,"2150 CHESTNUT ST","WILMINGTON","NC ",-77.9203,34.2396,485,452,21,473,43.08,11.26
"A L BROWN HIGH","CABARRUS COUNTY","132304",3.70243e+11,37025,37,28083,"415 EAST 1ST ST","KANNAPOLIS","NC ",-80.6186,35.4963,1409,738,90,828,97.92,14.39
"A L STANBACK MIDDLE","ORANGE COUNTY","680304",3.70348e+11,37135,37,27278,"3700 NC 86 SOUTH","HILLSBOROUGH","NC ",-79.0779,36.0271,632,263,35,298,51,12.39
"A T ALLEN ELEMENTARY","CABARRUS COUNTY","130304",3.70053e+11,37025,37,28025,"3939 ABILENE RD","CONCORD","NC ",-80.5137,35.3627,873,455,103,558,53.77,16.24
"A.C.E. ACADEMY","CABARRUS COUNTY","13C000",3.70037e+11,37025,37,28075,"TBD","TBD","NC ",-80.6731,35.3084,NA,NA,NA,NA,NA,NA
"ABERDEEN ELEMENTARY","MOORE COUNTY","630308",3.70309e+11,37125,37,28315,"503 SANDHILLS BLVD NORTH","ABERDEEN","NC ",-79.426,35.1397,315,225,18,243,18.31,17.2
"ABERDEEN PRIMARY","MOORE COUNTY","630304",3.70309e+11,37125,37,28315,"310 KEYSER ST","ABERDEEN","NC ",-79.4231,35.1244,320,239,21,260,24.36,13.14
"ACME DELCO ELEMENTARY","COLUMBUS COUNTY","240308",3.70096e+11,37047,37,28456,"16337 OLD LAKE RD","RIEGELWOOD","NC ",-78.2546,34.3475,327,238,30,268,22,14.86
"ACME DELCO MIDDLE","COLUMBUS COUNTY","240304",3.70096e+11,37047,37,28436,"26133 ANDREW JACKSON HWY","DELCO","NC ",-78.2164,34.3158,155,106,13,119,10.5,14.76
"ADAMS ELEMENTARY","WAKE COUNTY","920304",3.70472e+11,37183,37,27511,"805 CARY TOWNE BLVD","CARY","NC ",-78.7622,35.7769,780,259,38,297,57.5,13.57
"AHOSKIE ELEMENTARY","HERTFORD COUNTY","460308",3.70216e+11,37091,37,27910,"200 NORTH TALMAGE ST","AHOSKIE","NC ",-76.9948,36.2916,531,398,36,434,30,17.7
"ALAMANCE-BURLINGTON MIDDLE COLLEGE","ALAMANCE COUNTY","010303",3.70003e+11,37001,37,27253,"1247 JIMMIE KERR RD","GRAHAM","NC ",-79.3577,36.0665,74,38,1,39,5,14.8
"ALAMANCE ELEMENTARY","GUILFORD COUNTY","410304",3.70192e+11,37081,37,27406,"3600 WILLIAMS DAIRY RD","GREENSBORO","NC ",-79.7088,36.0148,821,334,68,402,50.41,16.29
"ALBEMARLE HIGH","STANLY COUNTY","840302",3.70432e+11,37167,37,28001,"311 PARK RIDGE RD","ALBEMARLE","NC ",-80.1932,35.3713,433,272,28,300,33.56,12.9
"ALBEMARLE MIDDLE","STANLY COUNTY","840303",3.70432e+11,37167,37,28001,"1811 BADIN RD","ALBEMARLE","NC ",-80.1684,35.3537,428,295,42,337,32.28,13.26
"ALBEMARLE ROAD ELEMENTARY","MECKLENBURG COUNTY","600300",3.70297e+11,37119,37,28212,"7800 RIDING TRAIL RD","CHARLOTTE","NC ",-80.7295,35.1971,1211,1058,59,1117,78.74,15.38
"ALBEMARLE ROAD MIDDLE","MECKLENBURG COUNTY","600301",3.70297e+11,37119,37,28212,"6900 DEMOCRACY DR","CHARLOTTE","NC ",-80.7288,35.1986,1158,928,80,1008,69.62,16.63
"ALBERT H BANGERT ELEMENTARY","CRAVEN COUNTY","250304",3.70331e+11,37049,37,28562,"3712 CANTERBURY RD","NEW BERN","NC ",-77.0834,35.0832,350,191,16,207,25.5,13.73
"ALDERMAN ROAD ELEMENTARY","CUMBERLAND COUNTY","260364",3.70001e+11,37051,37,28306,"2860 ALDERMAN RD","FAYETTEVILLE","NC ",-78.8603,34.8952,617,339,55,394,46.47,13.28
"ALEXANDER CENTRAL HIGH","ALEXANDER COUNTY","020302",3.70009e+11,37003,37,28681,"223 SCHOOL DR","TAYLORSVILLE","NC ",-81.1889,35.9168,1615,581,147,728,97.24,16.61
"ALEXANDER GRAHAM MIDDLE","MECKLENBURG COUNTY","600399",3.70297e+11,37119,37,28211,"1800 RUNNYMEDE LN","CHARLOTTE","NC ",-80.8321,35.1667,1448,461,37,498,75.65,19.14
"ALEXANDER WILSON ELEMENTARY","ALAMANCE COUNTY","010304",3.70003e+11,37001,37,27253,"2518 NC 54","GRAHAM","NC ",-79.347,36.0291,539,229,30,259,33.54,16.07
"ALGER B. WILKINS HIGH SCHOOL PLC","CUMBERLAND COUNTY","260374",3.70001e+11,37051,37,28303,"1429 SKIBO RD","FAYETTEVILLE","NC ",-78.9519,35.0825,162,116,5,121,10.5,15.43
"ALLEGHANY HIGH","ALLEGHANY COUNTY","030304",3.70012e+11,37005,37,28675,"404 TROJAN AVE","SPARTA","NC ",-81.125,36.5095,461,203,47,250,35.67,12.92
"ALLEN JAY ELEMENTARY","GUILFORD COUNTY","410310",3.70192e+11,37081,37,27263,"1311 EAST SPRINGFIELD RD","HIGH POINT","NC ",-79.9556,35.932,416,377,35,412,33.6,12.38
"ALLEN JAY MIDDLE A PREPARATORY ACADEMY","GUILFORD COUNTY","410311",3.70192e+11,37081,37,27263,"1201 EAST FAIRFIELD RD","HIGH POINT","NC ",-79.9619,35.9254,102,53,14,67,7.5,13.6
"ALLEN MIDDLE","GUILFORD COUNTY","410316",3.70192e+11,37081,37,27406,"1108 GLENDALE DR","GREENSBORO","NC ",-79.8238,36.0107,703,565,58,623,48.98,14.35
"ALLENBROOK ELEMENTARY","MECKLENBURG COUNTY","600308",3.70297e+11,37119,37,28208,"1430 ALLENBROOK DR","CHARLOTTE","NC ",-80.9151,35.2619,482,430,29,459,29.84,16.15
"ALMA O EASOM ELEMENTARY","CUMBERLAND COUNTY","260302",3.70001e+11,37051,37,28305,"1610 WESTLAWN AVE","FAYETTEVILLE","NC ",-78.9085,35.0613,285,99,10,109,16.84,16.92
"ALPHA ACADEMY","CUMBERLAND COUNTY","26B000",3.7001e+11,37051,37,28305,"907 HAY ST","FAYETTEVILLE","NC ",-78.8956,35.0558,594,77,295,372,22.38,26.54
"ALSTON RIDGE ELEMENTARY","WAKE COUNTY","920307",3.70472e+11,37183,37,27519,"11555 GREEN LEVEL CHURCH RD","CARY","NC ",-78.8996,35.8591,974,54,14,68,56.35,17.28
"ALTAMAHAW OSSIPEE ELEM","ALAMANCE COUNTY","010308",3.70003e+11,37001,37,27244,"2832 NORTH NC 87","ELON","NC ",-79.5105,36.1796,542,203,23,226,34.25,15.82
"AMERICAN RENAISSANCE SCHOOL","IREDELL COUNTY","49B000",3.70009e+11,37097,37,28677,"132 EAST BROAD ST","STATESVILLE","NC ",-80.8866,35.7848,531,85,58,143,34.95,15.19
"ANDERSON CREEK CLUB CHARTER","HARNETT COUNTY","43C000",3.70038e+11,37085,37,28390,"TBD","TBD","NC ",-78.9767,35.2779,NA,NA,NA,NA,NA,NA
"ANDERSON CREEK PRIMARY","HARNETT COUNTY","430304",3.70201e+11,37085,37,28323,"914 ANDERSON CREEK SCH RD","BUNNLEVEL","NC ",-78.9172,35.2821,591,293,75,368,44.41,13.31
"ANDREWS ELEMENTARY","CHEROKEE COUNTY","200304",3.70078e+11,37039,37,28901,"205 JEAN CHRISTY AVE","ANDREWS","NC ",-83.8251,35.1983,339,229,25,254,23.66,14.33
"ANDREWS HIGH","CHEROKEE COUNTY","200308",3.70078e+11,37039,37,28901,"50 HIGH SCHOOL DR","ANDREWS","NC ",-83.8243,35.1952,262,112,35,147,16.31,16.06
"ANDREWS MIDDLE","CHEROKEE COUNTY","200310",3.70078e+11,37039,37,28901,"2750 BUSINESS HWY 19","ANDREWS","NC ",-83.7977,35.1949,208,118,24,142,14,14.86
"ANGIER ELEMENTARY","HARNETT COUNTY","430308",3.70201e+11,37085,37,27501,"130 EAST MCIVER ST","ANGIER","NC ",-78.736,35.5035,438,289,42,331,34.65,12.64
"ANNE CHESNUTT MIDDLE","CUMBERLAND COUNTY","260336",3.70001e+11,37051,37,28314,"2121 SKIBO RD","FAYETTEVILLE","NC ",-78.973,35.0508,592,338,58,396,40,14.8
"ANSON ACADEMY","ANSON COUNTY","040305",3.70018e+11,37007,37,28170,"514 NORTH WASHINGTON ST","WADESBORO","NC ",-80.0717,34.9705,59,50,2,52,6.37,9.26
"ANSON CO. EARLY COLLEGE HIGH","ANSON COUNTY","040304",3.70018e+11,37007,37,28135,"177 LEDBETTER ST","POLKTON","NC ",-80.2105,34.9997,175,83,12,95,9.21,19
"ANSON HIGH SCHOOL","ANSON COUNTY","040306",3.70018e+11,37007,37,28170,"96 ANSON HIGH SCHOOL RD","WADESBORO","NC ",-80.1031,34.9774,660,439,56,495,56.35,11.71
"ANSON MIDDLE","ANSON COUNTY","040309",3.70018e+11,37007,37,28170,"832 US HWY 52 NORTH","WADESBORO","NC ",-80.0882,34.9896,575,405,49,454,30.53,18.83
"ANSON NEW TECH HIGH","ANSON COUNTY","040700",3.70018e+11,37007,37,28170,"118 WEST ASHE ST","WADESBORO","NC ",-80.0782,34.9607,150,87,19,106,8.14,18.43
"ANSONVILLE ELEMENTARY","ANSON COUNTY","040308",3.70018e+11,37007,37,28007,"9104 HWY 52 NORTH","ANSONVILLE","NC ",-80.1064,35.1054,232,135,10,145,17.58,13.2
"ANTIOCH ELEMENTARY","UNION COUNTY","900302",3.70462e+11,37179,37,28104,"3101 ANTIOCH CHURCH RD","MATTHEWS","NC ",-80.7228,35.0588,839,84,9,93,46,18.24
"APEX ELEMENTARY","WAKE COUNTY","920308",3.70472e+11,37183,37,27502,"700 TINGEN RD","APEX","NC ",-78.857,35.721,678,181,40,221,43.2,15.69
"APEX HIGH","WAKE COUNTY","920316",3.70472e+11,37183,37,27502,"1501 LAURA DUNCAN RD","APEX","NC ",-78.8373,35.7453,2527,188,52,240,130.5,19.36
"APEX MIDDLE","WAKE COUNTY","920312",3.70472e+11,37183,37,27502,"400 EAST MOORE ST","APEX","NC ",-78.8484,35.726,1147,179,39,218,62.5,18.35
"APPLE VALLEY MIDDLE","HENDERSON COUNTY","450301",3.7021e+11,37089,37,28792,"43 FRUITLAND RD","HENDERSONVILLE","NC ",-82.4219,35.3619,860,490,79,569,57.12,15.06
"AQUADALE ELEMENTARY","STANLY COUNTY","840304",3.70432e+11,37167,37,28128,"11707 NC HWY 138","NORWOOD","NC ",-80.2238,35.2291,308,152,24,176,22.29,13.82
"ARAPAHOE CHARTER SCHOOL","PAMLICO COUNTY","69A000",3.70004e+11,37137,37,28510,"9005 NC HWY 306 SOUTH","ARAPAHOE","NC ",-76.8212,35.0123,425,195,49,244,27.35,15.54
"ARCHDALE-TRINITY MIDDLE","RANDOLPH COUNTY","760378",3.70378e+11,37151,37,27370,"5105 ARCHDALE RD","TRINITY","NC ",-79.9541,35.8861,868,319,81,400,52.95,16.39
"ARCHDALE ELEMENTARY","RANDOLPH COUNTY","760304",3.70378e+11,37151,37,27263,"207 TRINDALE RD","ARCHDALE","NC ",-79.9752,35.9128,373,205,26,231,26,14.35
"ARCHER ELEMENTARY","GUILFORD COUNTY","410322",3.70192e+11,37081,37,27407,"2610 FOUR SEASONS BLVD","GREENSBORO","NC ",-79.8305,36.0305,426,378,30,408,32.95,12.93
"ARCHER LODGE MIDDLE","JOHNSTON COUNTY","510364",3.70237e+11,37101,37,27591,"762 WENDELL RD","WENDELL","NC ",-78.3661,35.7032,1055,348,64,412,59.67,17.68
"ARDREY KELL HIGH","MECKLENBURG COUNTY","600302",3.70297e+11,37119,37,28277,"10220 ARDREY KELL RD","CHARLOTTE","NC ",-80.8267,35.03,2512,217,72,289,123.66,20.31
"ARISTOTLE PREPARATORY ACADEMY","MECKLENBURG COUNTY","60N000",3.70035e+11,37119,37,28208,"2461 ARTY AVE","CHARLOTTE","NC ",-80.8819,35.2246,107,81,3,84,8.36,12.8
"ARMSTRONG ELEMENTARY","CUMBERLAND COUNTY","260306",3.70001e+11,37051,37,28312,"3395 DUNN RD","EASTOVER","NC ",-78.7907,35.0913,397,245,29,274,32.51,12.21
"ARTHUR W EDWARDS ELEMENTARY","CRAVEN COUNTY","250380",3.70331e+11,37049,37,28532,"200 EDUCATION LN","HAVELOCK","NC ",-76.9281,34.9101,475,136,93,229,31.21,15.22
"ARTSPACE CHARTER SCHOOL","BUNCOMBE COUNTY","11B000",3.70012e+11,37021,37,28778,"2030 US HWY 70","SWANNANOA","NC ",-82.4287,35.5947,383,94,92,186,31.45,12.18
"ASBURY SCHOOL","LINCOLN COUNTY","550308",3.70268e+11,37109,37,28092,"221 SALEM CHURCH RD","LINCOLNTON","NC ",-81.2079,35.4782,29,19,4,23,6.25,4.64
"ASHBROOK HIGH","GASTON COUNTY","360310",3.70162e+11,37071,37,28054,"2222 SOUTH NEW HOPE RD","GASTONIA","NC ",-81.1272,35.2431,1456,769,101,870,83.9,17.35
"ASHE COUNTY HIGH","ASHE COUNTY","050302",3.70021e+11,37009,37,28694,"184 CAMPUS DR","WEST JEFFERSON","NC ",-81.478,36.3927,967,404,130,534,63.26,15.29
"ASHE COUNTY MIDDLE","ASHE COUNTY","050305",3.70021e+11,37009,37,28693,"255 NORTHWEST LN","WARRENSVILLE","NC ",-81.5101,36.4636,487,232,55,287,38.99,12.49
"ASHEBORO HIGH","RANDOLPH COUNTY","761304",3.70024e+11,37151,37,27203,"1221 SOUTH PARK ST","ASHEBORO","NC ",-79.8184,35.6893,1240,713,81,794,84.59,14.66
"ASHEVILLE HIGH","BUNCOMBE COUNTY","111302",3.70027e+11,37021,37,28803,"419 MCDOWELL ST","ASHEVILLE","NC ",-82.5531,35.5729,1047,386,54,440,90.05,11.63
"ASHEVILLE MIDDLE","BUNCOMBE COUNTY","111356",3.70027e+11,37021,37,28801,"197 SOUTH FRENCH BROAD AVE","ASHEVILLE","NC ",-82.5601,35.5868,752,351,37,388,64.69,11.62
"ASHLEY ELEMENTARY","CUMBERLAND COUNTY","260308",3.70001e+11,37051,37,28304,"810 TRAINER DR","FAYETTEVILLE","NC ",-78.9068,35.0382,242,121,17,138,18.5,13.08
"ASHLEY ELEMENTARY","FORSYTH COUNTY","340308",3.7015e+11,37067,37,27105,"1647 ASHLEY SCHOOL CIRCLE","WINSTON-SALEM","NC ",-80.2209,36.1175,497,436,13,449,43.35,11.46
"ASHLEY PARK PREK-8 SCHOOL","MECKLENBURG COUNTY","600311",3.70297e+11,37119,37,28208,"2401 BELFAST DR","CHARLOTTE","NC ",-80.8903,35.2326,576,521,16,537,40.48,14.23
"ATHENS DRIVE HIGH","WAKE COUNTY","920318",3.70472e+11,37183,37,27606,"1420 ATHENS DR","RALEIGH","NC ",-78.7113,35.7687,1934,572,74,646,120.61,16.04
"ATKINS ACADEMIC & TECH HIGH","FORSYTH COUNTY","340311",3.7015e+11,37067,37,27101,"3605 OLD GREENSBORO RD","WINSTON-SALEM","NC ",-80.1959,36.108,479,171,32,203,33.48,14.31
"ATKINSON ELEMENTARY","HENDERSON COUNTY","450302",3.7021e+11,37089,37,28739,"2510 OLD KANUGA RD","HENDERSONVILLE","NC ",-82.4927,35.284,400,143,37,180,24.4,16.39
"ATLANTIC ELEMENTARY","CARTERET COUNTY","160304",3.70063e+11,37031,37,28511,"151 SCHOOL DR","ATLANTIC","NC ",-76.3424,34.8831,91,52,4,56,13.58,6.7
"AULANDER ELEMENTARY","BERTIE COUNTY","080348",3.70036e+11,37015,37,27805,"2515 NC HWY 305 NORTH","AULANDER","NC ",-77.1061,36.2144,181,169,9,178,12.76,14.18
"AURELIAN SPRINGS ELEMENTARY","HALIFAX COUNTY","420304",3.70195e+11,37083,37,27850,"10536 HWY 48","LITTLETON","NC ",-77.8083,36.3639,350,324,23,347,20.98,16.68
"AVERSBORO ELEMENTARY","WAKE COUNTY","920320",3.70472e+11,37183,37,27529,"1605 AVERSBORO RD","GARNER","NC ",-78.6162,35.6888,542,242,53,295,46.83,11.57
"AVERY'S CREEK ELEMENTARY","BUNCOMBE COUNTY","110410",3.70045e+11,37021,37,28704,"15 PARK SOUTH BLVD","ARDEN","NC ",-82.5792,35.4776,661,365,52,417,41.21,16.04
"AVERY COUNTY HIGH","AVERY COUNTY","060302",3.7003e+11,37011,37,28657,"401 HIGH SCHOOL RD","NEWLAND","NC ",-81.9197,36.0676,385,168,38,206,24.14,15.95
"AVERY HIGH STEM ACADEMY","AVERY COUNTY","060700",3.7003e+11,37011,37,28657,"401 HIGH SCHOOL RD","NEWLAND","NC ",-81.9197,36.0676,85,24,10,34,9,9.44
"AVERY HIGH VIKING ACADEMY","AVERY COUNTY","060701",3.7003e+11,37011,37,28657,"401 HIGH SCHOOL RD","NEWLAND","NC ",-81.9197,36.0676,170,72,22,94,9.5,17.89
"AVERY MIDDLE","AVERY COUNTY","060318",3.7003e+11,37011,37,28657,"102 OLD MONTEZUMA RD","NEWLAND","NC ",-81.9164,36.0674,287,137,33,170,22.16,12.95
"AYCOCK ELEMENTARY","VANCE COUNTY","910304",3.70465e+11,37181,37,27537,"305 CAREY CHAPEL RD","HENDERSON","NC ",-78.3613,36.3206,361,300,23,323,30,12.03
"AYCOCK MIDDLE","GUILFORD COUNTY","410325",3.70192e+11,37081,37,27405,"811 CYPRESS ST","GREENSBORO","NC ",-79.7809,36.0842,598,412,31,443,46.22,12.94
"AYDEN-GRIFTON HIGH","PITT COUNTY","740309",3.70001e+11,37147,37,28513,"7653 NC 11 SOUTH","AYDEN","NC ",-77.432,35.4303,662,344,39,383,42.64,15.53
"AYDEN ELEMENTARY","PITT COUNTY","740304",3.70001e+11,37147,37,28513,"187 THIRD ST","AYDEN","NC ",-77.4312,35.4758,683,424,35,459,47.12,14.49
"AYDEN MIDDLE","PITT COUNTY","740308",3.70001e+11,37147,37,28513,"192 THIRD ST","AYDEN","NC ",-77.4335,35.4722,356,209,20,229,23.5,15.15
"B C ED TECH CENTER","BEAUFORT COUNTY","070310",3.70033e+11,37013,37,27899,"820 NORTH BRIDGE ST","WASHINGTON","NC ",-77.0563,35.5515,55,47,5,52,8,6.88
"B EVERETT JORDAN ELEM","ALAMANCE COUNTY","010346",3.70003e+11,37001,37,27253,"5827 CHURCH RD","GRAHAM","NC ",-79.3262,35.9392,424,198,40,238,31.2,13.59
"B F GRADY ELEMENTARY","DUPLIN COUNTY","310304",3.7012e+11,37061,37,28508,"2627 NORTH NC 11 AND 903","ALBERTSON","NC ",-77.8288,35.0572,917,688,79,767,58.5,15.68
"B O BARNES ELEMENTARY","WILSON COUNTY","980308",3.70502e+11,37195,37,27893,"1913 MARTIN L KING PARKWAY","WILSON","NC ",-77.8864,35.7133,409,357,29,386,24,17.04
"B T WASHINGTON PRIMARY","BLADEN COUNTY","090304",3.70039e+11,37017,37,28433,"66 BOOKER T WASHINGTON RD","CLARKTON","NC ",-78.6673,34.5008,198,180,15,195,13.44,14.73
"BADIN ELEMENTARY","STANLY COUNTY","840308",3.70432e+11,37167,37,28009,"47 HENDERSON ST","BADIN","NC ",-80.1148,35.4021,406,217,44,261,26.12,15.54
"BAILEY ELEMENTARY","NASH COUNTY","640304",3.70327e+11,37127,37,27807,"6288 PINE ST","BAILEY","NC ",-78.1154,35.782,631,459,59,518,37.44,16.85
"BAILEY MIDDLE","MECKLENBURG COUNTY","600313",3.70297e+11,37119,37,28031,"11900 BAILEY RD","CORNELIUS","NC ",-80.8375,35.4673,1572,265,51,316,73.88,21.28
"BAILEYWICK ROAD ELEMENTARY","WAKE COUNTY","920326",3.70472e+11,37183,37,27615,"9425 BAILEYWICK RD","RALEIGH","NC ",-78.665,35.9094,433,196,15,211,34.6,12.51
"BAIN ELEMENTARY","MECKLENBURG COUNTY","600314",3.70297e+11,37119,37,28227,"11524 BAIN SCHOOL RD","CHARLOTTE","NC ",-80.6484,35.175,903,155,50,205,48.84,18.49
"BALD CREEK ELEMENTARY","YANCEY COUNTY","995304",3.70507e+11,37199,37,28714,"100 BALD CREEK SCHOOL RD","BURNSVILLE","NC ",-82.4236,35.9129,171,88,15,103,11.21,15.25
"BALFOUR EDUCATION CENTER","HENDERSON COUNTY","450343",3.7021e+11,37089,37,28792,"2529 ASHEVILLE HWY","HENDERSONVILLE","NC ",-82.4767,35.3487,131,115,10,125,24.33,5.38
"BALFOUR ELEMENTARY","RANDOLPH COUNTY","761312",3.70024e+11,37151,37,27203,"2097 NORTH ASHEBORO SCHOOL RD","ASHEBORO","NC ",-79.8217,35.746,577,532,42,574,45,12.82
"BALLANTYNE ELEMENTARY","MECKLENBURG COUNTY","600437",3.70297e+11,37119,37,28277,"15425 SCHOLASTIC LN","CHARLOTTE","NC ",-80.8561,35.0373,847,106,21,127,45.51,18.61
"BALLENTINE ELEMENTARY","WAKE COUNTY","920327",3.70472e+11,37183,37,27526,"1651 MCLAURIN LN","FUQUAY VARINA","NC ",-78.7706,35.6138,512,152,25,177,38,13.47
"BALLS CREEK ELEMENTARY","CATAWBA COUNTY","180304",3.70069e+11,37035,37,28658,"2620 BALLS CREEK RD","NEWTON","NC ",-81.1277,35.6303,614,287,53,340,38.31,16.03
"BANDYS HIGH","CATAWBA COUNTY","180308",3.70069e+11,37035,37,28609,"5040 EAST BANDYS RD","CATAWBA","NC ",-81.0844,35.6453,865,226,54,280,51.58,16.77
"BANKS ELEMENTARY","LENOIR COUNTY","540304",3.70261e+11,37107,37,28504,"2148 FALLING CREEK RD","KINSTON","NC ",-77.681,35.2841,535,287,49,336,37,14.46
"BANKS RD ELEMENTARY","WAKE COUNTY","920325",3.70472e+11,37183,37,27603,"10225 CHAMBERS RD","RALEIGH","NC ",-78.7096,35.6317,704,199,17,216,52,13.54
"BANNER ELK ELEMENTARY","AVERY COUNTY","060304",3.7003e+11,37011,37,28604,"155 ORCHARD LN","BANNER ELK","NC ",-81.8572,36.1483,162,62,16,78,13.5,12
"BANOAK ELEMENTARY","CATAWBA COUNTY","180312",3.70069e+11,37035,37,28168,"7651 WEST NC 10 HWY","VALE","NC ",-81.4413,35.5839,307,167,23,190,20.76,14.79
"BARNARDSVILLE ELEMENTARY","BUNCOMBE COUNTY","110308",3.70045e+11,37021,37,28709,"20 HILLCREST DR","BARNARDSVILLE","NC ",-82.46,35.7753,153,93,12,105,12.22,12.52
"BARNETTE ELEMENTARY","MECKLENBURG COUNTY","600328",3.70297e+11,37119,37,28078,"13659 BEATTIES FORD RD","HUNTERSVILLE","NC ",-80.9249,35.3998,628,102,20,122,36.21,17.34
"BARRINGER ACADEMIC CENTER","MECKLENBURG COUNTY","600316",3.70297e+11,37119,37,28208,"1546 WALTON RD","CHARLOTTE","NC ",-80.8889,35.2109,614,318,20,338,41.74,14.71
"BARTLETT YANCEY HIGH","CASWELL COUNTY","170316",3.70066e+11,37033,37,27379,"466 MAIN ST EAST","YANCEYVILLE","NC ",-79.3276,36.4033,790,387,84,471,54.5,14.5
"BARWELL ROAD ELEMENTARY","WAKE COUNTY","920329",3.70472e+11,37183,37,27610,"3925 BARWELL RD","RALEIGH","NC ",-78.5514,35.732,821,542,68,610,56.44,14.55
"BASKERVILLE ELEMENTARY","EDGECOMBE COUNTY","640306",3.70327e+11,37065,37,27801,"1100 STOKES AVE","ROCKY MOUNT","NC ",-77.771,35.9498,398,375,14,389,21.4,18.6
"BATH ELEMENTARY","BEAUFORT COUNTY","070308",3.70033e+11,37013,37,27808,"110 SOUTH KING ST","BATH","NC ",-76.8109,35.4754,581,186,29,215,38.4,15.13
"BATON ELEMENTARY","CALDWELL COUNTY","140304",3.70058e+11,37027,37,28630,"1400 BATON SCHOOL RD","GRANITE FALLS","NC ",-81.5361,35.8089,409,240,49,289,25.16,16.26
"BATTLEGROUND ELEMENTARY","LINCOLN COUNTY","550312",3.70268e+11,37109,37,28092,"201 JEB SEAGLE DR","LINCOLNTON","NC ",-81.2631,35.4764,310,250,23,273,24.66,12.57
"BAUCOM ELEMENTARY","WAKE COUNTY","920328",3.70472e+11,37183,37,27502,"400 HUNTER ST","APEX","NC ",-78.8543,35.737,900,119,27,146,54.5,16.51
"BEAR GRASS","MARTIN COUNTY","58B000",3.70032e+11,37117,37,27982,"6344 EAST BEAR GRASS RD","WILLIAMSTON","NC ",-77.1274,35.7676,296,25,0,25,20.74,14.27
"BEARFIELD PRIMARY","HERTFORD COUNTY","460312",3.70216e+11,37091,37,27910,"145 HERTFORD CO HIGH SCHOOL RD","AHOSKIE","NC ",-76.9938,36.2968,746,673,40,713,49.63,15.03
"BEAUFORT CO EARLY COLLEGE HIGH","BEAUFORT COUNTY","070311",3.70033e+11,37013,37,27889,"5337 HWY 264 EAST","WASHINGTON","NC ",-76.9669,35.5323,182,78,20,98,6,30.33
"BEAUFORT ELEMENTARY","CARTERET COUNTY","160308",3.70063e+11,37031,37,28516,"110 CARRAWAY DR","BEAUFORT","NC ",-76.6443,34.73,425,257,36,293,37.4,11.36
"BEAUFORT MIDDLE","CARTERET COUNTY","160310",3.70063e+11,37031,37,28516,"100 CARRAWAY DR","BEAUFORT","NC ",-76.6469,34.7297,273,121,19,140,22.45,12.16
"BEAVER DAM ELEMENTARY","CUMBERLAND COUNTY","260312",3.70001e+11,37051,37,28382,"12059 HWY 210 SOUTH","ROSEBORO","NC ",-78.5808,34.8945,111,57,6,63,7.5,14.8
"BEDDINGFIELD HIGH","WILSON COUNTY","980318",3.70502e+11,37195,37,27893,"4510 OLD STANTONSBURG RD","WILSON","NC ",-77.8766,35.6591,819,522,58,580,57.46,14.25
"BEE LOG ELEMENTARY","YANCEY COUNTY","995308",3.70507e+11,37199,37,28714,"55 BEE LOG RD","BURNSVILLE","NC ",-82.4085,35.9828,53,18,7,25,4.94,10.73
"BELL ELEMENTARY","BUNCOMBE COUNTY","110332",3.70045e+11,37021,37,28805,"90 MAPLE SPRINGS RD","ASHEVILLE","NC ",-82.4932,35.5896,301,148,26,174,20.66,14.57
"BELL FORK ELEMENTARY","ONSLOW COUNTY","670304",3.70345e+11,37133,37,28540,"500 BELL FORK RD","JACKSONVILLE","NC ",-77.3922,34.7533,493,248,51,299,35.5,13.89
"BELMONT CENTRAL ELEMENTARY","GASTON COUNTY","360320",3.70162e+11,37071,37,28012,"310 EAGLE RD","BELMONT","NC ",-81.0507,35.241,683,168,25,193,33.7,20.27
"BELMONT ELEMENTARY","HALIFAX COUNTY","421304",3.7039e+11,37083,37,27870,"1517 BOLLING RD","ROANOKE RAPIDS","NC ",-77.6749,36.4648,702,525,62,587,49,14.33
"BELMONT MIDDLE","GASTON COUNTY","360324",3.70162e+11,37071,37,28012,"110 NORTH CENTRAL AVE","BELMONT","NC ",-81.0417,35.2419,762,254,43,297,37.83,20.14
"BELVILLE ELEMENTARY","BRUNSWICK COUNTY","100302",3.70042e+11,37019,37,28451,"575 RIVER RD","LELAND","NC ",-77.9848,34.2214,734,355,46,401,42,17.48
"BELVOIR ELEMENTARY","PITT COUNTY","740310",3.70001e+11,37147,37,27834,"2568 NC 33 WEST","GREENVILLE","NC ",-77.4175,35.6676,490,461,26,487,34.37,14.26
"BEN D QUINN ELEMENTARY","CRAVEN COUNTY","250306",3.70331e+11,37049,37,28562,"4275 M L KING JR BLVD","NEW BERN","NC ",-77.1288,35.092,504,224,51,275,28.84,17.48
"BEN L. SMITH HIGH SCHOOL","GUILFORD COUNTY","410544",3.70192e+11,37081,37,27407,"2407 SOUTH HOLDEN RD","GREENSBORO","NC ",-79.8474,36.0347,1248,1000,80,1080,92.06,13.56
"BENHAVEN ELEMENTARY","HARNETT COUNTY","430312",3.70201e+11,37085,37,28368,"2815 OLIVIA RD","OLIVIA","NC ",-79.0941,35.3596,491,273,50,323,33.96,14.46
"BENJAMIN J MARTIN ELEMENTARY","CUMBERLAND COUNTY","260414",3.70001e+11,37051,37,28303,"430 NORTH REILLY RD","FAYETTEVILLE","NC ",-79.0099,35.0933,505,325,48,373,43.25,11.68
"BENJAMIN T BULLOCK ELEM","LEE COUNTY","530302",3.70256e+11,37105,37,27330,"1410 MCNEILL RD","SANFORD","NC ",-79.1866,35.507,689,465,63,528,40,17.23
"BENNETT SCHOOL","CHATHAM COUNTY","190304",3.70075e+11,37037,37,27208,"61 RANDOLPH ST","BENNETT","NC ",-79.5455,35.5614,225,86,17,103,17.88,12.58
"BENSON ELEMENTARY","JOHNSTON COUNTY","510308",3.70237e+11,37101,37,27504,"2040 HWY 50 NORTH","BENSON","NC ",-78.5554,35.4,607,403,24,427,47.5,12.78
"BENSON MIDDLE","JOHNSTON COUNTY","510310",3.70237e+11,37101,37,27504,"1600 NORTH WALL ST","BENSON","NC ",-78.532,35.3895,419,237,32,269,29.5,14.2
"BENTON HEIGHTS ELEMENTARY","UNION COUNTY","900304",3.70462e+11,37179,37,28110,"1200 CONCORD AVE","MONROE","NC ",-80.5537,34.9937,649,538,46,584,58.49,11.1
"BENVENUE ELEMENTARY","NASH COUNTY","640308",3.70327e+11,37127,37,27804,"2700 NICODEMUS MILE RD","ROCKY MOUNT","NC ",-77.8385,35.9764,690,445,62,507,36.5,18.9
"BEREWICK ELEMENTARY","MECKLENBURG COUNTY","600369",3.70297e+11,37119,37,28278,"5910 DIXIE RIVER RD","CHARLOTTE","NC ",-80.9787,35.1751,709,325,64,389,38.4,18.46
"BERRYHILL SCHOOL","MECKLENBURG COUNTY","600319",3.70297e+11,37119,37,28278,"10501 WINDY GROVE RD","CHARLOTTE","NC ",-80.9905,35.2128,641,530,46,576,44.92,14.27
"BERTIE ACADEMY","BERTIE COUNTY","080375",3.70036e+11,37015,37,27983,"819 GOVERNOR'S RD","WINDSOR","NC ",-77.0132,36.0341,31,26,2,28,4.83,6.42
"BERTIE EARLY COLLEGE HIGH","BERTIE COUNTY","080311",3.70036e+11,37015,37,27983,"819 GOVERNOR'S RD","WINDSOR","NC ",-77.0132,36.0341,143,81,14,95,9.17,15.59
"BERTIE HIGH","BERTIE COUNTY","080312",3.70036e+11,37015,37,27983,"715 US HWY 13 NORTH","WINDSOR","NC ",-76.9722,36.0504,473,385,31,416,39,12.13
"BERTIE MIDDLE","BERTIE COUNTY","080314",3.70036e+11,37015,37,27983,"652 US HWY 13 NORTH","WINDSOR","NC ",-76.9651,36.0477,636,484,46,530,35,18.17
"BERTIE STEM HIGH","BERTIE COUNTY","080700",3.70036e+11,37015,37,27983,"715 US 13 NORTH","WINDSOR","NC ",-76.9722,36.0504,164,73,23,96,10,16.4
"BESSEMER CITY CENTRAL ELEM","GASTON COUNTY","360332",3.70162e+11,37071,37,28016,"1400 PUETT'S CHAPEL RD","BESSEMER CITY","NC ",-81.2752,35.3008,343,238,24,262,19.6,17.5
"BESSEMER CITY HIGH","GASTON COUNTY","360336",3.70162e+11,37071,37,28016,"119 YELLOW JACKET LN","BESSEMER CITY","NC ",-81.2814,35.2972,642,393,42,435,40.7,15.77
"BESSEMER CITY MIDDLE","GASTON COUNTY","360436",3.70162e+11,37071,37,28016,"525 ED WILSON RD","BESSEMER CITY","NC ",-81.2998,35.2726,544,369,37,406,34.29,15.86
"BESSEMER CITY PRIMARY","GASTON COUNTY","360338",3.70162e+11,37071,37,28016,"1320 NORTH 12TH ST","BESSEMER CITY","NC ",-81.2785,35.2988,321,269,23,292,22.15,14.49
"BESSEMER ELEMENTARY","GUILFORD COUNTY","410328",3.70192e+11,37081,37,27405,"918 HUFFINE MILL RD","GREENSBORO","NC ",-79.7373,36.0896,463,445,15,460,37.97,12.19
"BETHANY COMMUNITY MIDDLE","ROCKINGHAM COUNTY","79A000",3.70011e+11,37157,37,27320,"181 BETHANY RD","REIDSVILLE","NC ",-79.8586,36.31,252,52,31,83,13.18,19.12
"BETHANY ELEMENTARY","ROCKINGHAM COUNTY","790302",3.70399e+11,37157,37,27320,"271 BETHANY RD","REIDSVILLE","NC ",-79.8605,36.3119,429,150,35,185,27.5,15.6
"BETHEL ELEMENTARY","CABARRUS COUNTY","130308",3.70053e+11,37025,37,28107,"2425 MIDLAND RD","MIDLAND","NC ",-80.534,35.2417,613,208,30,238,35.4,17.32
"BETHEL ELEMENTARY","HAYWOOD COUNTY","440314",3.70204e+11,37087,37,28716,"4700 OLD RIVER RD","CANTON","NC ",-82.8897,35.4859,505,245,34,279,35.31,14.3
"BETHEL ELEMENTARY","PITT COUNTY","740320",3.70001e+11,37147,37,27812,"210 EAST WASHINGTON RD","BETHEL","NC ",-77.3709,35.8061,322,215,16,231,23.9,13.47
"BETHEL ELEMENTARY","WATAUGA COUNTY","950308",3.70483e+11,37189,37,28679,"138 BETHEL SCHOOL RD","SUGAR GROVE","NC ",-81.8488,36.2935,176,66,34,100,16.69,10.55
"BETHEL HILL CHARTER","PERSON COUNTY","73A000",3.70011e+11,37145,37,27574,"401 BETHEL HILL SCHOOL RD","ROXBORO","NC ",-78.9171,36.5043,394,106,31,137,31.11,12.66
"BETHEL MIDDLE","HAYWOOD COUNTY","440318",3.70204e+11,37087,37,28786,"630 SONOMA RD","WAYNESVILLE","NC ",-82.8946,35.4728,288,114,24,138,21.93,13.13
"BETHESDA ELEMENTARY","DURHAM COUNTY","320304",3.70126e+11,37063,37,27703,"2009 SOUTH MIAMI BLVD","DURHAM","NC ",-78.8378,35.9402,680,508,34,542,44.51,15.28
"BETHLEHEM ELEMENTARY","ALEXANDER COUNTY","020304",3.70009e+11,37003,37,28681,"7900 NC HWY 127","TAYLORSVILLE","NC ",-81.3101,35.8433,492,153,36,189,32,15.38
"BETHWARE ELEMENTARY","CLEVELAND COUNTY","230304",3.7009e+11,37045,37,28086,"115 BETHWARE DR","KINGS MOUNTAIN","NC ",-81.414,35.2484,406,262,26,288,29.55,13.74
"BEULAVILLE ELEMENTARY","DUPLIN COUNTY","310308",3.7012e+11,37061,37,28518,"138 LYMAN RD","BEULAVILLE","NC ",-77.764,34.9194,963,570,64,634,59.31,16.24
"BEVERLY HILLS ELEMENTARY","CABARRUS COUNTY","130309",3.70053e+11,37025,37,28025,"87 PALASIDE DR NE","CONCORD","NC ",-80.5967,35.4318,367,218,28,246,22.63,16.22
"BEVERLY WOODS ELEMENTARY","MECKLENBURG COUNTY","600322",3.70297e+11,37119,37,28210,"6001 QUAIL HOLLOW RD","CHARLOTTE","NC ",-80.8368,35.1314,742,106,7,113,44.22,16.78
"BILL HEFNER ELEMENTARY","CUMBERLAND COUNTY","260367",3.70001e+11,37051,37,28314,"7059 CALAMAR DR","FAYETTEVILLE","NC ",-79.045,35.0684,765,416,57,473,49.84,15.35
"BILLINGSVILLE ELEMENTARY","MECKLENBURG COUNTY","600335",3.70297e+11,37119,37,28205,"124 SKYLAND AVE","CHARLOTTE","NC ",-80.8095,35.1966,553,501,13,514,41.37,13.37
"BLACK MOUNTAIN ELEMENTARY","BUNCOMBE COUNTY","110318",3.70045e+11,37021,37,28711,"100 FLAT CREEK RD","BLACK MOUNTAIN","NC ",-82.3141,35.6222,232,99,12,111,15.68,14.8
"BLACK MOUNTAIN PRIMARY","BUNCOMBE COUNTY","110320",3.70045e+11,37021,37,28711,"301 EAST STATE ST","BLACK MOUNTAIN","NC ",-82.318,35.6207,468,218,30,248,30.78,15.2
"BLACKBURN ELEMENTARY","CATAWBA COUNTY","180316",3.70069e+11,37035,37,28658,"4377 WEST NC 10 HWY","NEWTON","NC ",-81.3327,35.6149,710,280,79,359,39.11,18.15
"BLADEN LAKES PRIMARY","BLADEN COUNTY","090318",3.70039e+11,37017,37,28337,"9554 JOHNSONTOWN RD","ELIZABETHTOWN","NC ",-78.5953,34.7096,276,209,19,228,22.1,12.49
"BLADENBORO MIDDLE","BLADEN COUNTY","090315",3.70039e+11,37017,37,28320,"910 SOUTH MAIN ST","BLADENBORO","NC ",-78.7974,34.5303,374,248,25,273,21.33,17.53
"BLADENBORO PRIMARY","BLADEN COUNTY","090317",3.70039e+11,37017,37,28320,"312 OLD WHITEVILLE RD","BLADENBORO","NC ",-78.7959,34.531,411,NA,NA,NA,30.3,13.56
"BLOWING ROCK ELEMENTARY","WATAUGA COUNTY","950312",3.70483e+11,37189,37,28605,"165 MORRIS ST","BLOWING ROCK","NC ",-81.6762,36.1319,331,58,12,70,28.5,11.61
"BLUE CREEK ELEMENTARY","ONSLOW COUNTY","670308",3.70345e+11,37133,37,28540,"1260 BURGAW HWY","JACKSONVILLE","NC ",-77.4782,34.7537,453,242,43,285,32.5,13.94
"BLUE RIDGE ACADEMY","AVERY COUNTY","060334",3.7003e+11,37011,37,28657,"102 OLD MONTEZUMA RD","NEWLAND","NC ",-81.916,36.067,33,26,3,29,3,11
"BLUE RIDGE EARLY COLLEGE","JACKSON COUNTY","500302",3.70234e+11,37099,37,28717,"95 BOBCAT DR","CASHIERS","NC ",-83.1205,35.1286,162,76,22,98,10.72,15.11
"BLUE RIDGE ELEMENTARY","ASHE COUNTY","050310",3.70021e+11,37009,37,28693,"5778 NC HWY 88 WEST","WARRENSVILLE","NC ",-81.5329,36.4613,498,326,45,371,41.36,12.04
"BLUE RIDGE SCHOOL","JACKSON COUNTY","500316",3.70234e+11,37099,37,28717,"95 BOBCAT DR","CASHIERS","NC ",-83.1205,35.1286,165,111,18,129,14.77,11.17
"BLUFORD ELEMENTARY","GUILFORD COUNTY","410331",3.70192e+11,37081,37,27401,"1901 TUSCALOOSA ST","GREENSBORO","NC ",-79.7637,36.0584,295,238,27,265,20.64,14.29
"BLYTHE ELEMENTARY","MECKLENBURG COUNTY","600442",3.70297e+11,37119,37,28078,"12202 HAMBRIGHT RD","HUNTERSVILLE","NC ",-80.8353,35.3764,1083,465,45,510,68.28,15.86
"BOGUE SOUND ELEMENTARY","CARTERET COUNTY","160306",3.70063e+11,37031,37,28570,"3323 HWY 24","NEWPORT","NC ",-76.9508,34.7187,437,211,31,242,35.4,12.34
"BOILING SPRINGS ELEMENTARY","CLEVELAND COUNTY","230308",3.7009e+11,37045,37,28152,"1522 PATRICK AVE","SHELBY","NC ",-81.6548,35.2395,520,266,34,300,39.5,13.16
"BOLIVIA ELEMENTARY","BRUNSWICK COUNTY","100304",3.70042e+11,37019,37,28422,"4036 BUSINESS HWY 17E","BOLIVIA","NC ",-78.1448,34.0703,494,287,36,323,30,16.47
"BOLTON ELEMENTARY","FORSYTH COUNTY","340314",3.7015e+11,37067,37,27103,"1250 BOLTON ST","WINSTON SALEM","NC ",-80.2912,36.0741,474,390,34,424,43.5,10.9
"BONLEE SCHOOL","CHATHAM COUNTY","190308",3.70075e+11,37037,37,27213,"153 BONLEE SCHOOL RD","BONLEE","NC ",-79.4176,35.6405,363,163,32,195,25.15,14.43
"BOOMER-FERGUSON ELEMENTARY","WILKES COUNTY","970308",3.70495e+11,37193,37,28606,"556 BOOMERFERGUSON SCH RD","BOOMER","NC ",-81.276,36.0922,148,127,10,137,9.9,14.95
"BOONE TRAIL ELEMENTARY","HARNETT COUNTY","430316",3.70201e+11,37085,37,27546,"1425 ADCOCK RD","LILLINGTON","NC ",-78.951,35.3993,881,460,102,562,60.76,14.5
"BOONVILLE ELEMENTARY","YADKIN COUNTY","990304",3.70504e+11,37197,37,27011,"232 EAST MAIN ST","BOONVILLE","NC ",-80.7007,36.2328,328,164,42,206,24.78,13.24
"BOSTIAN ELEMENTARY","ROWAN COUNTY","800312",3.70405e+11,37159,37,28023,"4245 OLD BEATTY FORD RD","CHINA GROVE","NC ",-80.5423,35.524,311,115,20,135,21.1,14.74
"BOWMAN MIDDLE","MITCHELL COUNTY","610302",3.703e+11,37121,37,28705,"410 SOUTH MITCHELL AVE","BAKERSVILLE","NC ",-82.1525,36.0129,256,96,38,134,20.5,12.49
"BRADFORD PREPARATORY","MECKLENBURG COUNTY","60S000",3.70036e+11,37119,37,28075,"TBD","TBD","NC ",-80.7216,35.347,NA,NA,NA,NA,NA,NA
"BRADLEY CREEK ELEMENTARY","NEW HANOVER COUNTY","650304",3.70333e+11,37129,37,28409,"6211 GREENVILLE LOOP","WILMINGTON","NC ",-77.8452,34.1979,467,241,22,263,32.07,14.56
"BRAGG STREET ACADEMY","LEE COUNTY","530306",3.70256e+11,37105,37,27330,"504 BRAGG ST","SANFORD","NC ",-79.1603,35.4813,55,51,0,51,9.5,5.79
"BRASSFIELD ELEMENTARY","WAKE COUNTY","920334",3.70472e+11,37183,37,27614,"2001 BRASSFIELD RD","RALEIGH","NC ",-78.6288,35.9336,790,97,15,112,48.8,16.19
"BRAWLEY MIDDLE","IREDELL COUNTY","490308",3.70231e+11,37097,37,28117,"132 SWIFT ARROW DR","MOORESVILLE","NC ",-80.8807,35.5826,714,84,24,108,40.12,17.8
"BRAXTON CRAVEN MIDDLE","RANDOLPH COUNTY","760308",3.70378e+11,37151,37,27370,"7037 NC HWY 62","TRINITY","NC ",-79.993,35.8935,399,152,39,191,24,16.63
"BRENTWOOD ELEMENTARY","CUMBERLAND COUNTY","260320",3.70001e+11,37051,37,28304,"1115 BINGHAM DR","FAYETTEVILLE","NC ",-78.9833,35.0381,499,391,48,439,39.8,12.54
"BRENTWOOD ELEMENTARY","WAKE COUNTY","920336",3.70472e+11,37183,37,27604,"3426 INGRAM DR","RALEIGH","NC ",-78.5967,35.83,428,288,42,330,40.65,10.53
"BREVARD ACADEMY","TRANSYLVANIA COUNTY","88A000",3.70007e+11,37175,37,28712,"299 ANDANTE LN","BREVARD","NC ",-82.7512,35.2425,227,42,25,67,20.63,11
"BREVARD ELEMENTARY","TRANSYLVANIA COUNTY","880304",3.70453e+11,37175,37,28712,"601 GREENVILLE HWY","BREVARD","NC ",-82.7222,35.2252,510,307,35,342,38.5,13.25
"BREVARD HIGH","TRANSYLVANIA COUNTY","880308",3.70453e+11,37175,37,28712,"609 COUNTRY CLUB RD","BREVARD","NC ",-82.7356,35.2172,714,255,47,302,57.7,12.37
"BREVARD MIDDLE","TRANSYLVANIA COUNTY","880312",3.70453e+11,37175,37,28712,"400 FISHER RD","BREVARD","NC ",-82.7291,35.2464,540,265,47,312,44,12.27
"BRIARCLIFF ELEMENTARY","WAKE COUNTY","920340",3.70472e+11,37183,37,27511,"1220 POND ST","CARY","NC ",-78.787,35.7691,601,216,32,248,43.5,13.82
"BRIARWOOD ELEMENTARY","MECKLENBURG COUNTY","600329",3.70297e+11,37119,37,28215,"1001 WILANN DR","CHARLOTTE","NC ",-80.7659,35.2521,685,606,26,632,43.4,15.78
"BRIDGES ACADEMY","WILKES COUNTY","97D000",3.70004e+11,37193,37,28676,"2587 PLEASANT RIDGE RD","STATE ROAD","NC ",-80.8846,36.3149,147,88,3,91,6.8,21.62
"BRIDGES SCHOOL","CARTERET COUNTY","160309",3.70063e+11,37031,37,28557,"140 VASHTI DR","MOREHEAD CITY","NC ",-76.7895,34.7386,36,30,3,33,7,5.14
"BRIDGETON ELEMENTARY","CRAVEN COUNTY","250308",3.70331e+11,37049,37,28560,"230 BRANCH CANAL RD","NEW BERN","NC ",-77.0422,35.1546,489,255,47,302,29.66,16.49
"BRIER CREEK ELEMENTARY","DAVIDSON COUNTY","290302",3.70114e+11,37057,37,27360,"175 WATFORD RD","THOMASVILLE","NC ",-80.0871,35.7976,344,170,26,196,22.95,14.99
"BRIER CREEK ELEMENTARY","WAKE COUNTY","920342",3.70472e+11,37183,37,27617,"9801 BRIER CREEK PARKWAY","RALEIGH","NC ",-78.8049,35.9015,855,148,29,177,54,15.83
"BRIGHTWOOD ELEMENTARY","GUILFORD COUNTY","410334",3.70192e+11,37081,37,27405,"2001 BRIGHTWOOD SCHOOL RD","GREENSBORO","NC ",-79.749,36.148,573,484,50,534,43.07,13.3
"BRINSON MEMORIAL ELEMENTARY","CRAVEN COUNTY","250312",3.70331e+11,37049,37,28560,"319 NEUSE FOREST AVE","NEW BERN","NC ",-77.0175,35.068,680,219,49,268,45.83,14.84
"BROAD CREEK MIDDLE","CARTERET COUNTY","160311",3.70063e+11,37031,37,28570,"2382 HWY 24","NEWPORT","NC ",-76.9121,34.7295,654,144,51,195,44.97,14.54
"BROADVIEW MIDDLE","ALAMANCE COUNTY","010310",3.70003e+11,37001,37,27217,"2229 BROADVIEW DR","BURLINGTON","NC ",-79.3968,36.0871,796,682,40,722,52.5,15.16
"BROADWAY ELEMENTARY","LEE COUNTY","530308",3.70256e+11,37105,37,27505,"307 SOUTH MAIN ST","BROADWAY","NC ",-79.0528,35.4519,628,450,27,477,37,16.97
"BROGDEN MIDDLE","DURHAM COUNTY","320306",3.70126e+11,37063,37,27704,"1001 LEON ST","DURHAM","NC ",-78.9093,36.0247,677,471,27,498,47.8,14.16
"BROGDEN MIDDLE","WAYNE COUNTY","960312",3.70488e+11,37191,37,28333,"3761 US 117 SOUTH ALT","DUDLEY","NC ",-78.0372,35.2931,522,406,45,451,31.5,16.57
"BROGDEN PRIMARY","WAYNE COUNTY","960314",3.70488e+11,37191,37,28333,"2253 OLD MT OLIVE HWY","DUDLEY","NC ",-78.0357,35.2722,806,703,50,753,48.65,16.57
"BROOKS ELEMENTARY","WAKE COUNTY","920344",3.70472e+11,37183,37,27609,"700 NORTHBROOK DR","RALEIGH","NC ",-78.6545,35.8449,586,133,13,146,39.82,14.72
"BROOKS GLOBAL ELEMENTARY","GUILFORD COUNTY","410337",3.70192e+11,37081,37,27408,"1215 WESTOVER TERRACE","GREENSBORO","NC ",-79.8148,36.0872,409,117,29,146,25.16,16.26
"BROOKSIDE ELEMENTARY","GASTON COUNTY","360340",3.70162e+11,37071,37,28054,"1925 AUTEN RD","GASTONIA","NC ",-81.1474,35.2938,541,372,32,404,32.15,16.83
"BROWN SUMMIT MIDDLE","GUILFORD COUNTY","410341",3.70192e+11,37081,37,27214,"4720 NC HWY 150 EAST","BROWNS SUMMIT","NC ",-79.7026,36.2115,243,27,10,37,11.88,20.45
"BRUCE DRYSDALE ELEMENTARY","HENDERSON COUNTY","450306",3.7021e+11,37089,37,28792,"271 BEARCAT BLVD","HENDERSONVILLE","NC ",-82.461,35.3223,440,313,19,332,31,14.19
"BRUCE H THARRINGTON ELEM","SURRY COUNTY","862308",3.70321e+11,37171,37,27030,"315 CULBERT ST","MOUNT AIRY","NC ",-80.6017,36.4914,385,266,19,285,28,13.75
"BRUNS ACADEMY","MECKLENBURG COUNTY","600489",3.70297e+11,37119,37,28208,"501 SOUTH BRUNS AVE","CHARLOTTE","NC ",-80.8649,35.2391,809,736,15,751,51.18,15.81
"BRUNSON ELEMENTARY","FORSYTH COUNTY","340320",3.7015e+11,37067,37,27104,"155 NORTH HAWTHORNE RD","WINSTON SALEM","NC ",-80.2651,36.0943,604,287,28,315,37.48,16.12
"BRUNSWICK COUNTY ACADEMY","BRUNSWICK COUNTY","100308",3.70042e+11,37019,37,28422,"1109 OLD OCEAN HWY","BOLIVIA","NC ",-78.2386,34.0383,127,93,10,103,19.5,6.51
"BRUNSWICK COUNTY EARLY COLLEGE","BRUNSWICK COUNTY","100307",3.70042e+11,37019,37,28422,"50 COLLEGE RD NE","BOLIVIA","NC ",-78.2298,34.0381,281,104,31,135,12,23.42
"BRUSH CREEK ELEMENTARY","MADISON COUNTY","570306",3.70282e+11,37115,37,28753,"265 UPPER BRUSH CREEK RD","MARSHALL","NC ",-82.713,35.8406,418,238,39,277,28.58,14.63
"BUCKLAND ELEMENTARY","GATES COUNTY","370304",3.70168e+11,37073,37,27937,"448 NC 37 NORTH","GATES","NC ",-76.7608,36.4679,213,97,17,114,18,11.83
"BUGG ELEMENTARY","WAKE COUNTY","920352",3.70472e+11,37183,37,27610,"825 COOPER RD","RALEIGH","NC ",-78.5866,35.7659,569,314,55,369,48,11.85
"BUIES CREEK ELEMENTARY","HARNETT COUNTY","430320",3.70201e+11,37085,37,27506,"340 MAIN ST","BUIES CREEK","NC ",-78.7362,35.4116,312,126,9,135,21.81,14.31
"BUNCOMBE COUNTY EARLY COLLEGE","BUNCOMBE COUNTY",NA,3.70045e+11,37021,37,28801,"340 VICTORIA RD","ASHEVILLE","NC ",-82.556,35.5707,226,82,37,119,13.5,16.74
"BUNCOMBE COUNTY MIDDLE COLLEGE","BUNCOMBE COUNTY",NA,3.70045e+11,37021,37,28801,"340 VICTORIA RD","ASHEVILLE","NC ",-82.553,35.5689,66,23,2,25,4,16.5
"BUNCOMBE DISCOVERY ACADEMY (PROPOSED)","BUNCOMBE COUNTY",NA,3.70045e+11,37021,37,28806,"175 BINGHAM RD","ASHEVILLE","NC ",-82.5837,35.6068,NA,NA,NA,NA,NA,NA
"BUNKER HILL HIGH","CATAWBA COUNTY","180320",3.70069e+11,37035,37,28610,"4675 OXFORD SCHOOL RD","CLAREMONT","NC ",-81.1113,35.742,953,440,104,544,55.91,17.05
"BUNN ELEMENTARY","FRANKLIN COUNTY","350304",3.70153e+11,37069,37,27508,"686 BUNN ELEM SCHOOL RD","BUNN","NC ",-78.2638,35.9409,701,406,60,466,46.78,14.99
"BUNN HIGH","FRANKLIN COUNTY","350308",3.70153e+11,37069,37,27508,"29 BUNN ELEM SCHOOL RD","BUNN","NC ",-78.2498,35.9541,868,417,61,478,55.65,15.6
"BUNN MIDDLE","FRANKLIN COUNTY","350310",3.70153e+11,37069,37,27508,"4742 NC 39 HWY SOUTH","BUNN","NC ",-78.2635,35.975,728,389,73,462,44.15,16.49
"BURGAW ELEMENTARY","PENDER COUNTY","710312",3.70357e+11,37141,37,28425,"400 NORTH WRIGHT ST","BURGAW","NC ",-77.928,34.5565,447,383,31,414,30.85,14.49
"BURGAW MIDDLE","PENDER COUNTY","710316",3.70357e+11,37141,37,28425,"500 SOUTH WRIGHT ST","BURGAW","NC ",-77.9246,34.545,241,159,19,178,16.52,14.59
"BURKE MIDDLE COLLEGE","BURKE COUNTY","120310",3.70048e+11,37023,37,28655,"1001 BURKEMONT AVE","MORGANTON","NC ",-81.6884,35.7235,113,35,12,47,3,37.67
"BURNS HIGH","CLEVELAND COUNTY","230312",3.7009e+11,37045,37,28090,"307 EAST STAGECOACH TRAIL","LAWNDALE","NC ",-81.5323,35.4201,1077,536,82,618,81.07,13.28
"BURNS MIDDLE","CLEVELAND COUNTY","230316",3.7009e+11,37045,37,28090,"215 SHADY GROVE RD","LAWNDALE","NC ",-81.5391,35.4258,864,484,75,559,58.88,14.67
"BURNSVILLE ELEMENTARY","YANCEY COUNTY","995312",3.70507e+11,37199,37,28714,"395 BURNSVILLE SCHOOL RD","BURNSVILLE","NC ",-82.26,35.9172,394,235,32,267,25.04,15.73
"BURTON ELEMENTARY","DURHAM COUNTY","320308",3.70126e+11,37063,37,27701,"1500 MATHISON AVE","DURHAM","NC ",-78.8877,35.9793,377,343,13,356,30.81,12.24
"BUTLER AVENUE ELEMENTARY","SAMPSON COUNTY","821304",3.70093e+11,37163,37,28328,"301 BUTLER AVE","CLINTON","NC ",-78.3179,34.9886,494,NA,NA,NA,30.5,16.2
"BUTLER HIGH","MECKLENBURG COUNTY","600361",3.70297e+11,37119,37,28105,"1810 MATTHEWSMINT HILL RD","MATTHEWS","NC ",-80.6916,35.1203,2066,742,159,901,111.73,18.49
"BUTNER-STEM ELEMENTARY","GRANVILLE COUNTY","390311",3.7018e+11,37077,37,27509,"201 EAST D ST","BUTNER","NC ",-78.7583,36.1373,414,268,26,294,25.55,16.2
"BUTNER-STEM MIDDLE","GRANVILLE COUNTY","390309",3.7018e+11,37077,37,27509,"501 EAST D ST","BUTNER","NC ",-78.754,36.1414,442,245,38,283,25.88,17.08
"C A DILLON YOUTH DEVELOPMENT CENTER","GRANVILLE COUNTY",NA,3.70016e+11,37077,37,27509,"100 DILLON DR","BUTNER","NC ",-78.7888,36.145,NA,NA,NA,NA,NA,NA
"C B ELLER ELEMENTARY","WILKES COUNTY","970310",3.70495e+11,37193,37,28621,"1288 CB ELLER SCHOOL RD","ELKIN","NC ",-80.8859,36.2724,278,161,30,191,17.4,15.98
"C B MARTIN MIDDLE","EDGECOMBE COUNTY",NA,3.70132e+11,37065,37,27886,"400 EAST JOHNSTON ST","TARBORO","NC ",-77.5365,35.9072,353,298,12,310,17.4,20.29
"C C GRIFFIN MIDDLE","CABARRUS COUNTY","130318",3.70053e+11,37025,37,28025,"7650 GRIFFIN'S GATE DR","CONCORD","NC ",-80.5876,35.3088,1088,536,118,654,67.95,16.01
"C C SPAULDING ELEMENTARY","DURHAM COUNTY","320374",3.70126e+11,37063,37,27707,"1531 SOUTH ROXBORO RD","DURHAM","NC ",-78.906,35.9782,265,254,8,262,22.3,11.88
"C C WRIGHT ELEMENTARY","WILKES COUNTY","970312",3.70495e+11,37193,37,28659,"200 CC WRIGHT SCHOOL RD","NORTH WILKESBORO","NC ",-81.1078,36.1372,449,312,29,341,33.53,13.39
"C E JORDAN HIGH","DURHAM COUNTY","320312",3.70126e+11,37063,37,27707,"6806 GARRETT RD","DURHAM","NC ",-78.9622,35.9227,1775,626,85,711,107.31,16.54
"C JOYNER GREENE EDUCATION CENTER","GUILFORD COUNTY","410458",3.70192e+11,37081,37,27282,"604 HIGH POINT RD","JAMESTOWN","NC ",-79.9156,35.9967,64,39,4,43,12.14,5.27
"C M EPPES MIDDLE","PITT COUNTY","740324",3.70001e+11,37147,37,27858,"1100 SOUTH ELM ST","GREENVILLE","NC ",-77.3607,35.5997,623,450,23,473,41.27,15.1
"C WAYNE COLLIER ELEMENTARY","CUMBERLAND COUNTY","260342",3.70001e+11,37051,37,28348,"3522 STURBRIDGE DR","HOPE MILLS","NC ",-78.9828,34.9744,556,315,46,361,40.6,13.69
"C. G. CREDLE ELEMENTARY","GRANVILLE COUNTY","390312",3.7018e+11,37077,37,27565,"223 COLLEGE ST","OXFORD","NC ",-78.5908,36.3135,473,341,29,370,27.69,17.08
"CABARRUS-KANNAPOLIS EARLY COLL","CABARRUS COUNTY","130350",3.70053e+11,37025,37,28027,"1531 TRINITY CHURCH RD","CONCORD","NC ",-80.659,35.4366,231,69,31,100,8.4,27.5
"CABARRUS CHARTER ACADEMY","CABARRUS COUNTY","13B000",3.70035e+11,37025,37,28077,"355 POPLAR CROSSING DR NW","CONCORD","NC ",-80.6691,35.4104,646,82,23,105,45.2,14.29
"CABARRUS CO OPPORTUNITY SCHOOL","CABARRUS COUNTY","130317",3.70053e+11,37025,37,28025,"120 MARSH AVE NW","CONCORD","NC ",-80.5895,35.4122,95,71,10,81,13.49,7.04
"CALDWELL CAREER CEN MID. COLL.","CALDWELL COUNTY","140305",3.70058e+11,37027,37,28638,"2857 HICKORY BLVD","HUDSON","NC ",-81.4852,35.8556,227,68,34,102,17,13.35
"CALDWELL CO GATEWAY SCH","CALDWELL COUNTY",NA,3.70058e+11,37027,37,28630,"1889 DUDLEY SHOALS RD","GRANITE FALLS","NC ",-81.3684,35.8641,39,34,2,36,12,3.25
"CALDWELL EARLY COLLEGE","CALDWELL COUNTY","140309",3.70058e+11,37027,37,28638,"2859 HICKORY BLVD SW","HUDSON","NC ",-81.4838,35.8538,324,109,45,154,18,18
"CALEB'S CREEK ELEMENTARY","FORSYTH COUNTY","340326",3.7015e+11,37067,37,27284,"1109 SALEM CROSSING RD","KERNERSVILLE","NC ",-80.0859,36.0779,837,240,48,288,49.97,16.75
"CAMDEN COUNTY HIGH","CAMDEN COUNTY","150304",3.7006e+11,37029,37,27921,"103 US 158 WEST","CAMDEN","NC ",-76.1713,36.3271,450,82,36,118,32.5,13.85
"CAMDEN INTERMEDIATE","CAMDEN COUNTY","150310",3.7006e+11,37029,37,27921,"123 NOBLITT DR","CAMDEN","NC ",-76.155,36.3185,461,121,41,162,26.86,17.16
"CAMDEN MIDDLE","CAMDEN COUNTY","150312",3.7006e+11,37029,37,27921,"248 SCOTLAND RD","CAMDEN","NC ",-76.1741,36.3613,297,66,29,95,20.64,14.39
"CAMERON ELEMENTARY","MOORE COUNTY","630312",3.70309e+11,37125,37,28326,"2636 NC HWY 24 27","CAMERON","NC ",-79.2661,35.3269,254,132,12,144,17,14.94
"CAMERON PARK ELEMENTARY","ORANGE COUNTY","680308",3.70348e+11,37135,37,27278,"240 ST MARY'S RD","HILLSBOROUGH","NC ",-79.0936,36.0772,655,211,22,233,42.28,15.49
"CAMTECH HIGH","CAMDEN COUNTY","150700",3.7006e+11,37029,37,27921,"103A US HWY 158 WEST","CAMDEN","NC ",-76.1723,36.3276,150,35,10,45,9,16.67
"CANDLER ELEMENTARY","BUNCOMBE COUNTY","110324",3.70045e+11,37021,37,28715,"121 CANDLER SCHOOL RD","CANDLER","NC ",-82.7001,35.5382,609,344,47,391,34.25,17.78
"CANDOR ELEMENTARY","MONTGOMERY COUNTY","620312",3.70306e+11,37123,37,27229,"414 SOUTH MAIN","CANDOR","NC ",-79.7458,35.2903,328,NA,NA,NA,20.78,15.78
"CANE CREEK MIDDLE","BUNCOMBE COUNTY","110326",3.70045e+11,37021,37,28732,"570 LOWER BRUSH CREEK RD","FLETCHER","NC ",-82.4336,35.4845,671,197,63,260,43.32,15.49
"CANE RIVER MIDDLE","YANCEY COUNTY","995316",3.70507e+11,37199,37,28714,"1128 CANE RIVER SCHOOL RD","BURNSVILLE","NC ",-82.3777,35.9122,275,130,35,165,21.39,12.86
"CANTON MIDDLE","HAYWOOD COUNTY","440320",3.70204e+11,37087,37,28716,"60 PENLAND ST","CANTON","NC ",-82.8423,35.527,603,296,38,334,38.67,15.59
"CAPE FEAR CENTER FOR INQUIRY","NEW HANOVER COUNTY","65A000",3.70011e+11,37129,37,28401,"2525 WONDER WAY","WILMINGTON","NC ",-77.9307,34.1934,368,34,20,54,28.89,12.74
"CAPE FEAR ELEMENTARY","PENDER COUNTY","710318",3.70357e+11,37141,37,28457,"1882 NC HWY 133","ROCKY POINT","NC ",-77.9167,34.4066,503,298,35,333,29.35,17.14
"CAPE FEAR HIGH","CUMBERLAND COUNTY","260325",3.70001e+11,37051,37,28301,"4762 CLINTON RD","FAYETTEVILLE","NC ",-78.7624,35.034,1538,590,111,701,96.43,15.95
"CAPE FEAR MIDDLE","PENDER COUNTY","710320",3.70357e+11,37141,37,28457,"1886 NC HWY 133","ROCKY POINT","NC ",-77.9158,34.4057,546,342,43,385,34.65,15.76
"CAPE HATTERAS ELEMENTARY SCHOOL","DARE COUNTY","280302",3.70111e+11,37055,37,27920,"47500 MIDDLE RIDGE","BUXTON","NC ",-75.5517,35.259,302,139,31,170,23.09,13.08
"CAPE HATTERAS SECONDARY SCHOOL","DARE COUNTY","280304",3.70111e+11,37055,37,27920,"48576 HWY 12","BUXTON","NC ",-75.5343,35.2693,294,90,40,130,29.5,9.97
"CARDINAL CHARTER","WAKE COUNTY","92W000",3.70036e+11,37183,37,27615,"TBD","TBD","NC ",-78.7809,35.8015,NA,NA,NA,NA,NA,NA
"CAREER ACADEMY AND TECHNICAL SCHOOL","IREDELL COUNTY","490310",3.70231e+11,37097,37,28166,"350 OLD MURDOCK RD","TROUTMAN","NC ",-80.8876,35.7142,25,1,2,3,8.83,2.83
"CAREER CENTER","FORSYTH COUNTY","340332",3.7015e+11,37067,37,27101,"910 HIGHLAND COURT","WINSTON SALEM","NC ",-80.2332,36.1055,NA,NA,NA,NA,63.14,NA
"CAREER TECHNICAL EDUCATION CENTER","ALAMANCE COUNTY","010311",3.70003e+11,37001,37,27217,"2550 BUCKINGHAM RD","BURLINGTON","NC ",-79.3843,36.0927,NA,NA,NA,NA,13.75,NA
"CARL A FURR ELEMENTARY","CABARRUS COUNTY","130321",3.70053e+11,37025,37,28027,"2725 CLOVER RD","CONCORD","NC ",-80.6856,35.3769,726,305,54,359,47,15.45
"CARMEL MIDDLE","MECKLENBURG COUNTY","600333",3.70297e+11,37119,37,28226,"5001 CAMILLA DR","CHARLOTTE","NC ",-80.8044,35.1289,1033,385,37,422,59.07,17.49
"CARNAGE MIDDLE","WAKE COUNTY","920356",3.70472e+11,37183,37,27610,"1425 CARNAGE DR","RALEIGH","NC ",-78.6279,35.7619,1223,359,49,408,70.91,17.25
"CAROLINA BEACH ELEMENTARY","NEW HANOVER COUNTY","650308",3.70333e+11,37129,37,28428,"400 SOUTH 4TH ST","CAROLINA BEACH","NC ",-77.8998,34.031,442,137,26,163,28,15.79
"CAROLINA FOREST ELEMENTARY","ONSLOW COUNTY","670310",3.70345e+11,37133,37,28546,"141 CAROLINA FOREST BLVD","JACKSONVILLE","NC ",-77.4098,34.8115,990,258,102,360,49,20.2
"CAROLINA INTERNATIONAL SCHOOL","CABARRUS COUNTY","13A000",3.70013e+11,37025,37,28075,"8810 HICKORY RIDGE RD","HARRISBURG","NC ",-80.6277,35.2928,589,69,72,141,38.97,15.11
"CAROLINA STEM ACADEMY","MECKLENBURG COUNTY",NA,3.70038e+11,37119,37,28269,"TBD","TBD","NC ",-80.7393,35.2757,NA,NA,NA,NA,NA,NA
"CARPENTER ELEMENTARY","WAKE COUNTY","920358",3.70472e+11,37183,37,27519,"2100 MORRISVILLE PARKWAY","CARY","NC ",-78.8665,35.8144,717,143,13,156,44.8,16
"CARR ELEMENTARY","GASTON COUNTY","360344",3.70162e+11,37071,37,28034,"307 SOUTH PINE ST","DALLAS","NC ",-81.1834,35.3129,679,485,60,545,37.9,17.92
"CARRBORO ELEMENTARY","ORANGE COUNTY","681304",3.70072e+11,37135,37,27510,"400 SHELTON ST","CARRBORO","NC ",-79.0786,35.9149,461,140,13,153,37.01,12.46
"CARRBORO HIGH","ORANGE COUNTY","681305",3.70072e+11,37135,37,27510,"201 ROCK HAVEN RD","CARRBORO","NC ",-79.0855,35.8917,895,162,19,181,59.52,15.04
"CARROLL MIDDLE","WAKE COUNTY","920360",3.70472e+11,37183,37,27609,"4520 SIX FORKS RD","RALEIGH","NC ",-78.6427,35.8432,838,411,52,463,56.94,14.72
"CARSON HIGH","ROWAN COUNTY","800361",3.70405e+11,37159,37,28023,"290 KRESS VENTURE DR","CHINA GROVE","NC ",-80.5457,35.563,1176,440,91,531,68.92,17.06
"CARTER COMMUNITY CHARTER","DURHAM COUNTY","32C000",3.70005e+11,37063,37,27704,"4100 NORTH ROXBORO ST","DURHAM","NC ",-78.9003,36.0476,273,213,27,240,17.91,15.24
"CARTER G WOODSON SCHOOL","FORSYTH COUNTY","34D000",3.70003e+11,37067,37,27127,"437 GOLDFLOSS ST","WINSTON-SALEM","NC ",-80.2312,36.0674,452,382,11,393,27.42,16.48
"CARTER HIGH SCHOOL","FORSYTH COUNTY","340336",3.7015e+11,37067,37,27101,"851 HIGHLAND COURT","WINSTON SALEM","NC ",-80.2331,36.1048,164,84,13,97,33.63,4.88
"CARTHAGE ELEMENTARY","MOORE COUNTY","630316",3.70309e+11,37125,37,28327,"312 ROCKINGHAM ST","CARTHAGE","NC ",-79.417,35.341,415,230,25,255,30.24,13.72
"CARTOOGECHAYE ELEMENTARY","MACON COUNTY","560304",3.70276e+11,37113,37,28734,"3295 OLD MURPHY RD","FRANKLIN","NC ",-83.4378,35.1666,300,175,32,207,21.85,13.73
"CARVER ELEMENTARY","VANCE COUNTY","910308",3.70465e+11,37181,37,27537,"987 CARVER SCH RD","HENDERSON","NC ",-78.3315,36.3676,171,158,10,168,16.49,10.37
"CARVER ELEMENTARY","WAKE COUNTY","920362",3.70472e+11,37183,37,27591,"291 LILESDEAN RD","WENDELL","NC ",-78.3872,35.7912,467,236,25,261,36.45,12.81
"CARVER ELEMENTARY","WAYNE COUNTY","960316",3.70488e+11,37191,37,28365,"400 OLD SEVEN SPRINGS RD","MOUNT OLIVE","NC ",-78.052,35.1997,617,454,40,494,39.2,15.74
"CARVER HEIGHTS ELEMENTARY","WAYNE COUNTY","960318",3.70488e+11,37191,37,27530,"411 BUNCHE DR","GOLDSBORO","NC ",-77.9961,35.3669,301,275,8,283,27.35,11.01
"CARVER HIGH","FORSYTH COUNTY","340330",3.7015e+11,37067,37,27105,"3545 CARVER SCHOOL RD","WINSTON SALEM","NC ",-80.2066,36.1343,565,474,28,502,43.01,13.14
"CARVER MIDDLE","SCOTLAND COUNTY","830304",3.7042e+11,37165,37,28351,"18601 FIELDCREST RD","LAUREL HILL","NC ",-79.524,34.8199,446,354,27,381,37.8,11.8
"CARY ELEMENTARY","WAKE COUNTY","920364",3.70472e+11,37183,37,27511,"400 KILDAIRE FARM RD","CARY","NC ",-78.7811,35.7819,579,205,41,246,40.8,14.19
"CARY HIGH","WAKE COUNTY","920368",3.70472e+11,37183,37,27511,"638 WALNUT ST","CARY","NC ",-78.7663,35.7711,2349,609,133,742,129.95,18.08
"CASA ESPERANZA MONTESSORI CHARTER SCHOOL","WAKE COUNTY","92R000",3.70013e+11,37183,37,27616,"2600 SUMNER BLVD 130","RALEIGH","NC ",-78.5904,35.8728,392,77,0,77,17.6,22.27
"CASAR ELEMENTARY","CLEVELAND COUNTY","230320",3.7009e+11,37045,37,28020,"436 SCHOOLHOUSE RD","CASAR","NC ",-81.6208,35.5076,276,158,18,176,21.5,12.84
"CASH ELEMENTARY","FORSYTH COUNTY","340334",3.7015e+11,37067,37,27284,"4700 OLD HOLLOW RD","KERNERSVILLE","NC ",-80.1227,36.1363,680,199,39,238,45.23,15.03
"CASTLE HAYNE ELEMENTARY","NEW HANOVER COUNTY","650309",3.70333e+11,37129,37,28429,"3925 ROGER HAYNES DR","CASTLE HAYNE","NC ",-77.892,34.3516,502,286,45,331,36.5,13.75
"CASWELL CENTER","LENOIR COUNTY",NA,3.7e+11,37107,37,28504,"2415 WEST VERNON AVE","KINSTON","NC ",-77.6147,35.2694,NA,NA,NA,NA,NA,NA
"CATAWBA ELEMENTARY SCHOOL","CATAWBA COUNTY","180324",3.70069e+11,37035,37,28609,"5415 HUDSON CHAPEL RD","CATAWBA","NC ",-81.0729,35.6964,490,294,42,336,34,14.41
"CATAWBA HEIGHTS ELEMENTARY","GASTON COUNTY","360348",3.70162e+11,37071,37,28012,"101 IVEY ST","BELMONT","NC ",-81.0375,35.2745,336,206,18,224,22.7,14.8
"CATAWBA ROSENWALD EDUCATION CENTER","CATAWBA COUNTY","180323",3.70069e+11,37035,37,28609,"403 6TH AVE SW","CATAWBA","NC ",-81.0756,35.7019,46,32,7,39,14.06,3.27
"CATAWBA SPRINGS ELEMENTARY","LINCOLN COUNTY","550314",3.70268e+11,37109,37,28037,"206 NORTH LITTLE EGYPT RD","DENVER","NC ",-81.0217,35.4554,529,136,30,166,34.08,15.52
"CATO MIDDLE COLLEGE HIGH","MECKLENBURG COUNTY","600334",3.70297e+11,37119,37,28215,"8120 GRIER RD","CHARLOTTE","NC ",-80.7312,35.2649,205,53,19,72,6,34.17
"CCCA - SOUTHEASTERN CAMPUS","COLUMBUS COUNTY","240373",3.70096e+11,37047,37,28472,"4564 CHADBOURN HWY","WHITEVILLE","NC ",-78.7824,34.332,220,104,19,123,11.27,19.52
"CEASAR CONE ELEMENTARY","GUILFORD COUNTY","410349",3.70192e+11,37081,37,27405,"2501 NORTH CHURCH ST","GREENSBORO","NC ",-79.7818,36.108,438,425,7,432,33.5,13.07
"CEDAR CREEK MIDDLE","FRANKLIN COUNTY","350312",3.70153e+11,37069,37,27596,"2228 CEDAR CREEK RD","YOUNGSVILLE","NC ",-78.4504,36.041,587,234,42,276,37.03,15.85
"CEDAR FORK ELEMENTARY","WAKE COUNTY","920369",3.70472e+11,37183,37,27560,"1050 TOWN HALL DR","MORRISVILLE","NC ",-78.8396,35.8368,853,44,18,62,52,16.4
"CEDAR GROVE ELEMENTARY","NASH COUNTY","640316",3.70327e+11,37127,37,27856,"8967 CEDAR GROVE SCH LOOP RD","NASHVILLE","NC ",-77.9692,36.0762,196,149,15,164,12.5,15.68
"CEDAR GROVE MIDDLE","BRUNSWICK COUNTY","100309",3.70042e+11,37019,37,28462,"750 GROVE TRAIL SW","SUPPLY","NC ",-78.2734,33.9652,488,308,29,337,35.65,13.69
"CEDAR RIDGE ELEMENTARY","SURRY COUNTY","860302",3.70441e+11,37171,37,27024,"734 FLIPPIN RD","LOWGAP","NC ",-80.7882,36.5082,366,234,39,273,24.87,14.72
"CEDAR RIDGE HIGH","ORANGE COUNTY","680310",3.70348e+11,37135,37,27278,"1125 NEW GRADY BROWN SCH RD","HILLSBOROUGH","NC ",-79.1262,36.0541,1127,290,56,346,70.29,16.03
"CELESTE HENKEL ELEMENTARY","IREDELL COUNTY","490312",3.70231e+11,37097,37,28677,"1503 OLD MOUNTAIN RD","STATESVILLE","NC ",-80.9753,35.7554,582,340,36,376,34.5,16.87
"CENTENNIAL CAMPUS MIDDLE","WAKE COUNTY","920370",3.70472e+11,37183,37,27606,"1900 MAIN CAMPUS DR","RALEIGH","NC ",-78.6887,35.7578,587,235,32,267,40.58,14.47
"CENTER FOR INNOVATIVE LEARNING","GRANVILLE COUNTY","390314",3.7018e+11,37077,37,27565,"3144 WEBB SCHOOL RD","OXFORD","NC ",-78.5962,36.339,41,30,1,31,9,4.56
"CENTRAL ACADEMY OF TECHNOLOGY & ARTS","UNION COUNTY","900366",3.70462e+11,37179,37,28112,"600 BREWER DR","MONROE","NC ",-80.5688,34.9709,822,146,54,200,51.34,16.01
"CENTRAL CABARRUS HIGH","CABARRUS COUNTY","130310",3.70053e+11,37025,37,28025,"505 HWY 49 SOUTH","CONCORD","NC ",-80.5839,35.3627,1259,490,138,628,83.27,15.12
"CENTRAL DAVIDSON HIGH","DAVIDSON COUNTY","290308",3.70114e+11,37057,37,27292,"2747 NC HWY 47","LEXINGTON","NC ",-80.2231,35.7395,993,367,81,448,58.22,17.06
"CENTRAL DAVIDSON MIDDLE","DAVIDSON COUNTY","290309",3.70114e+11,37057,37,27292,"2591 NC HWY 47","LEXINGTON","NC ",-80.2252,35.7409,815,374,62,436,45.56,17.89
"CENTRAL DAVIE ACADEMY","DAVIE COUNTY","300306",3.70117e+11,37059,37,27028,"160 CAMPBELL RD","MOCKSVILLE","NC ",-80.5522,35.9079,24,19,2,21,5,4.8
"CENTRAL ELEMENTARY","CURRITUCK COUNTY","270304",3.70108e+11,37053,37,27917,"504 SHORTCUT RD","BARCO","NC ",-76.0092,36.3892,171,103,0,103,18,9.5
"CENTRAL ELEMENTARY","HAYWOOD COUNTY","440324",3.70204e+11,37087,37,28786,"62 JOY LN","WAYNESVILLE","NC ",-82.993,35.486,260,186,15,201,24.5,10.61
"CENTRAL ELEMENTARY","IREDELL COUNTY","490316",3.70231e+11,37097,37,28677,"4083 WILKESBORO HWY","STATESVILLE","NC ",-80.9589,35.9273,326,123,15,138,19.2,16.98
"CENTRAL ELEMENTARY","NORTHAMPTON COUNTY","660306",3.70342e+11,37131,37,27845,"9742 NC HWY 305","JACKSON","NC ",-77.4342,36.4186,279,221,20,241,22.73,12.27
"CENTRAL ELEMENTARY","ORANGE COUNTY","680312",3.70348e+11,37135,37,27278,"154 HAYES ST","HILLSBOROUGH","NC ",-79.1146,36.08,346,239,27,266,31.23,11.08
"CENTRAL ELEMENTARY","PASQUOTANK COUNTY","700306",3.70354e+11,37139,37,27909,"1059 US HWY 17","ELIZABETH CITY","NC ",-76.2634,36.2879,376,193,28,221,22.5,16.71
"CENTRAL ELEMENTARY","ROCKINGHAM COUNTY","790310",3.70399e+11,37157,37,27288,"435 EAST STADIUM DR","EDEN","NC ",-79.7309,36.5044,474,265,20,285,29.8,15.91
"CENTRAL ELEMENTARY","STANLY COUNTY","840310",3.70432e+11,37167,37,28001,"206 NORTH 3RD ST","ALBEMARLE","NC ",-80.1954,35.3549,578,416,45,461,40.79,14.17
"CENTRAL HAYWOOD HIGH","HAYWOOD COUNTY","440326",3.70204e+11,37087,37,28721,"3215 BROAD ST","CLYDE","NC ",-82.9128,35.5344,60,41,5,46,11.52,5.21
"CENTRAL MIDDLE","COLUMBUS COUNTY","241304",3.70492e+11,37047,37,28472,"310 SOUTH MARTIN L KING JR AVE","WHITEVILLE","NC ",-78.7106,34.3273,511,298,41,339,37,13.81
"CENTRAL MIDDLE","GATES COUNTY","370308",3.70168e+11,37073,37,27938,"362 US HWY 158","GATESVILLE","NC ",-76.727,36.4365,389,171,48,219,30,12.97
"CENTRAL MIDDLE","SURRY COUNTY","860306",3.70441e+11,37171,37,27017,"883 ZEPHYR RD","DOBSON","NC ",-80.7345,36.3959,696,419,71,490,40.39,17.23
"CENTRAL PARK SCHOOL FOR CHILD","DURHAM COUNTY","32K000",3.70013e+11,37063,37,27701,"724 FOSTER ST","DURHAM","NC ",-78.901,36.0046,317,22,9,31,26.5,11.96
"CENTRAL WILKES MIDDLE","WILKES COUNTY","970315",3.70495e+11,37193,37,28654,"3541 SOUTH NC HWY 16","MORAVIAN FALLS","NC ",-81.1775,36.0941,746,433,53,486,42.53,17.54
"CERRO GORDO ELEMENTARY","COLUMBUS COUNTY","240328",3.70096e+11,37047,37,28430,"7685 ANDREW JACKSON HWY","CERRO GORDO","NC ",-78.931,34.329,367,239,31,270,21.5,17.07
"CHADBOURN ELEMENTARY","COLUMBUS COUNTY","240332",3.70096e+11,37047,37,28431,"409 EAST THIRD AVE","CHADBOURN","NC ",-78.8206,34.3253,302,269,16,285,18.32,16.48
"CHADBOURN MIDDLE","COLUMBUS COUNTY","240330",3.70096e+11,37047,37,28431,"801 WEST SMITH ST","CHADBOURN","NC ",-78.8346,34.3161,151,130,7,137,12.33,12.25
"CHALLENGER EARLY COLLEGE HIGH","CATAWBA COUNTY","180325",3.70069e+11,37035,37,28602,"2550 HWY 70 SE","HICKORY","NC ",-81.2881,35.6995,353,131,35,166,13.05,27.05
"CHALONER MIDDLE","HALIFAX COUNTY","421306",3.7039e+11,37083,37,27870,"2100 VIRGINIA AVE","ROANOKE RAPIDS","NC ",-77.6594,36.4413,742,357,62,419,41.2,18.01
"CHANTILLY MONTESSORI","MECKLENBURG COUNTY","600336",3.70297e+11,37119,37,28205,"701 BRIAR CREEK RD","CHARLOTTE","NC ",-80.8003,35.2077,255,37,20,57,18.05,14.13
"CHAPEL GROVE ELEMENTARY","GASTON COUNTY","360352",3.70162e+11,37071,37,28052,"5201 LEWIS RD","GASTONIA","NC ",-81.2483,35.2073,439,316,33,349,30.1,14.58
"CHAPEL HILL HIGH","ORANGE COUNTY","681308",3.70072e+11,37135,37,27516,"1709 HIGH SCHOOL RD","CHAPEL HILL","NC ",-79.0803,35.9465,1412,254,45,299,88.19,16.01
"CHARITY MIDDLE","DUPLIN COUNTY","310324",3.7012e+11,37061,37,28458,"1333 WEST CHARITY RD","ROSE HILL","NC ",-77.9682,34.8241,544,365,34,399,30.81,17.66
"CHARLES B AYCOCK HIGH","WAYNE COUNTY","960324",3.70488e+11,37191,37,27863,"5460 US 117 NORTH","PIKEVILLE","NC ",-77.9801,35.5091,1187,398,53,451,71,16.72
"CHARLES E BOGER ELEMENTARY","CABARRUS COUNTY","130325",3.70053e+11,37025,37,28081,"5150 DOVE FIELD LN","KANNAPOLIS","NC ",-80.6621,35.4552,817,215,57,272,49.68,16.45
"CHARLES ENGLAND ELEMENTARY SCHOOL","DAVIDSON COUNTY","291308",3.70264e+11,37057,37,27292,"111 CORNELIA DR","LEXINGTON","NC ",-80.2392,35.8168,611,489,23,512,36.85,16.58
"CHARLES H DARDEN MIDDLE","WILSON COUNTY","980317",3.70502e+11,37195,37,27893,"1665 LIPSCOMB RD","WILSON","NC ",-77.8861,35.719,358,305,20,325,22.8,15.7
"CHARLES H TUTTLE ELEMENTARY","CATAWBA COUNTY","180326",3.70069e+11,37035,37,28650,"2872 WATER PLANT RD","MAIDEN","NC ",-81.1565,35.5879,521,194,33,227,31.79,16.39
"CHARLES P MURRAY MIDDLE","NEW HANOVER COUNTY","650310",3.70333e+11,37129,37,28412,"655 HALYBURTON MEMORIAL PARKWY","WILMINGTON","NC ",-77.905,34.0984,850,278,62,340,53,16.04
"CHARLES W MCCRARY ELEMENTARY","RANDOLPH COUNTY","761320",3.70024e+11,37151,37,27203,"400 ROSS ST","ASHEBORO","NC ",-79.818,35.7128,414,351,20,371,37,11.19
"CHARLES W STANFORD MIDDLE","ORANGE COUNTY","680316",3.70348e+11,37135,37,27278,"308 ORANGE HIGH RD","HILLSBOROUGH","NC ",-79.095,36.0896,641,186,32,218,41.67,15.38
"CHARLOTTE CHOICE CHARTER","MECKLENBURG COUNTY","60P000",3.70034e+11,37119,37,28205,"1000 ANDERSON ST","CHARLOTTE","NC ",-80.7949,35.2441,197,133,16,149,12.44,15.84
"CHARLOTTE LEARNING ACADEMY","MECKLENBURG COUNTY","60V000",3.70036e+11,37119,37,28277,"TBD","TBD","NC ",-80.8647,35.1817,NA,NA,NA,NA,NA,NA
"CHARLOTTE SECONDARY","MECKLENBURG COUNTY","60K000",3.70014e+11,37119,37,28211,"8601 MCALPINE PARK DR","CHARLOTTE","NC ",-80.7486,35.152,330,49,9,58,23.01,14.34
"CHARTER DAY SCHOOL","BRUNSWICK COUNTY","10A000",3.7001e+11,37019,37,28451,"7055 BACON'S WAY","LELAND","NC ",-78.1362,34.2829,925,152,183,335,49.66,18.63
"CHASE HIGH SCHOOL","RUTHERFORD COUNTY","810324",3.70408e+11,37161,37,28043,"1603 CHASE HIGH RD","FOREST CITY","NC ",-81.8434,35.2514,746,371,41,412,48.7,15.32
"CHASE MIDDLE SCHOOL","RUTHERFORD COUNTY","810326",3.70408e+11,37161,37,28043,"840 CHASE HIGH RD","FOREST CITY","NC ",-81.8461,35.2702,732,454,42,496,41.26,17.74
"CHATHAM CENTRAL HIGH","CHATHAM COUNTY","190316",3.70075e+11,37037,37,27207,"14950 NC HWY 902 WEST","BEAR CREEK","NC ",-79.3906,35.6151,395,113,21,134,29.75,13.28
"CHATHAM CHARTER","CHATHAM COUNTY","19A000",3.70002e+11,37037,37,27344,"2200 HAMP STONE RD","SILER CITY","NC ",-79.4796,35.7425,439,36,30,66,30.9,14.21
"CHATHAM MIDDLE","CHATHAM COUNTY","190312",3.70075e+11,37037,37,27344,"2025 SOUTH 2ND AVE EXT","SILER CITY","NC ",-79.4467,35.707,529,439,28,467,34.7,15.24
"CHEROKEE EXTENSION SCHOOL","SWAIN COUNTY",NA,3.70444e+11,37173,37,28713,"280 SCHOOL DR","BRYSON CITY","NC ",-83.449,35.4229,85,NA,NA,NA,5,17
"CHERRYVILLE ELEMENTARY","GASTON COUNTY","360364",3.70162e+11,37071,37,28021,"700 EAST ACADEMY ST","CHERRYVILLE","NC ",-81.3717,35.3782,420,253,32,285,25.9,16.22
"CHERRYVILLE HIGH","GASTON COUNTY","360360",3.70162e+11,37071,37,28021,"313 RIDGE AVE","CHERRYVILLE","NC ",-81.3799,35.3897,591,242,48,290,39.33,15.03
"CHESTERFIELD ELEMENTARY","BURKE COUNTY","120304",3.70048e+11,37023,37,28655,"2142 PAX HILL RD","MORGANTON","NC ",-81.6643,35.8108,198,168,21,189,14.56,13.6
"CHESTNUT GROVE MIDDLE","STOKES COUNTY","850304",3.70438e+11,37169,37,27021,"2185 CHESTNUT GROVE RD","KING","NC ",-80.375,36.32,776,282,76,358,49.15,15.79
"CHICOD","PITT COUNTY","740332",3.70001e+11,37147,37,27834,"7557 NC 43 SOUTH","GREENVILLE","NC ",-77.2732,35.4639,962,320,35,355,63.43,15.17
"CHILDERS ELEMENTARY","LINCOLN COUNTY","550340",3.70268e+11,37109,37,28092,"2595 ROCK DAM RD","LINCOLNTON","NC ",-81.3176,35.4812,443,235,44,279,32.49,13.63
"CHILDREN'S VILLAGE ACADEMY","LENOIR COUNTY","54A000",3.70003e+11,37107,37,28501,"701 NORTH ADKIN ST","KINSTON","NC ",-77.5678,35.2661,241,208,17,225,11.73,20.55
"CHILDRENS CENTER","FORSYTH COUNTY","340344",3.7015e+11,37067,37,27106,"2315 COLISEUM DR","WINSTON SALEM","NC ",-80.2788,36.117,53,28,5,33,15.07,3.52
"CHINA GROVE ELEMENTARY","ROWAN COUNTY","800316",3.70405e+11,37159,37,28023,"514 SOUTH FRANKLIN ST","CHINA GROVE","NC ",-80.584,35.5683,587,362,32,394,34.2,17.16
"CHINA GROVE MIDDLE","ROWAN COUNTY","800320",3.70405e+11,37159,37,28023,"1013 NORTH MAIN ST","CHINA GROVE","NC ",-80.5699,35.5772,617,259,42,301,42.5,14.52
"CHINQUAPIN ELEMENTARY","DUPLIN COUNTY","310330",3.7012e+11,37061,37,28521,"3894 NC 50 SOUTH","CHINQUAPIN","NC ",-77.8114,34.8246,597,296,67,363,39.9,14.96
"CHOCOWINITY MIDDLE","BEAUFORT COUNTY","070325",3.70033e+11,37013,37,27817,"3831 US HWY 17 SOUTH","CHOCOWINITY","NC ",-77.102,35.5096,441,264,42,306,29.49,14.95
"CHOCOWINITY PRIMARY","BEAUFORT COUNTY","070326",3.70033e+11,37013,37,27817,"606 GRAY RD","CHOCOWINITY","NC ",-77.0947,35.4987,517,349,53,402,41.1,12.58
"CHOWAN MIDDLE","CHOWAN COUNTY","210304",3.70084e+11,37041,37,27980,"2845 VIRGINIA RD","TYNER","NC ",-76.6561,36.2331,535,305,38,343,39,13.72
"CHURCHLAND ELEMENTARY","DAVIDSON COUNTY","290312",3.70114e+11,37057,37,27295,"7571 SOUTH NC HWY 150","LEXINGTON","NC ",-80.4163,35.7885,460,287,30,317,32.4,14.2
"CIS ACADEMY","ROBESON COUNTY","78A000",3.70004e+11,37155,37,28372,"818 WEST 3RD ST","PEMBROKE","NC ",-79.2034,34.685,109,65,15,80,8.75,12.46
"CITY OF MEDICINE ACADEMY","DURHAM COUNTY","320317",3.70126e+11,37063,37,27704,"301 CRUTCHFIELD RD","DURHAM","NC ",-78.9026,36.0388,323,170,16,186,22.5,14.36
"CLARA J PECK ELEMENTARY","GUILFORD COUNTY","410514",3.70192e+11,37081,37,27403,"1601 WEST FLORIDA ST","GREENSBORO","NC ",-79.8181,36.0512,336,316,17,333,29.1,11.55
"CLAREMONT ELEMENTARY","CATAWBA COUNTY","180332",3.70069e+11,37035,37,28610,"3384 EAST MAIN ST","CLAREMONT","NC ",-81.1434,35.7159,383,207,29,236,29.17,13.13
"CLARKE ELEMENTARY","VANCE COUNTY","910311",3.70465e+11,37181,37,27537,"309 MOUNT CARMEL CHURCH RD","HENDERSON","NC ",-78.3679,36.3016,466,443,20,463,35,13.31
"CLARKTON SCHOOL OF DISCOVERY","BLADEN COUNTY","090320",3.70039e+11,37017,37,28433,"10000 NORTH COLLEGE ST","CLARKTON","NC ",-78.6523,34.4947,302,157,21,178,17.05,17.71
"CLAXTON ELEMENTARY","BUNCOMBE COUNTY","111312",3.70027e+11,37021,37,28801,"241 MERRIMON AVE","ASHEVILLE","NC ",-82.5532,35.6078,446,172,16,188,27.58,16.17
"CLAXTON ELEMENTARY","GUILFORD COUNTY","410343",3.70192e+11,37081,37,27410,"3720 PINETOP RD","GREENSBORO","NC ",-79.8612,36.1117,617,151,36,187,37.63,16.4
"CLAYTON HIGH","JOHNSTON COUNTY","510324",3.70237e+11,37101,37,27520,"600 SOUTH FAYETTEVILLE ST","CLAYTON","NC ",-78.4664,35.65,1475,378,67,445,87.59,16.84
"CLAYTON MIDDLE","JOHNSTON COUNTY","510412",3.70237e+11,37101,37,27520,"490 GUY RD","CLAYTON","NC ",-78.4848,35.6452,785,268,62,330,49.37,15.9
"CLEAR CREEK ELEMENTARY","HENDERSON COUNTY","450307",3.7021e+11,37089,37,28792,"737 NORTH CLEAR CREEK RD","HENDERSONVILLE","NC ",-82.4419,35.3739,509,294,43,337,33.83,15.05
"CLEAR CREEK ELEMENTARY","MECKLENBURG COUNTY","600338",3.70297e+11,37119,37,28227,"13501 ALBEMARLE RD","CHARLOTTE","NC ",-80.6252,35.2238,660,316,56,372,37,17.84
"CLEARMONT ELEMENTARY","YANCEY COUNTY","995320",3.70507e+11,37199,37,28714,"1175 CLEARMONT SCHOOL RD","BURNSVILLE","NC ",-82.2974,35.9764,126,66,14,80,7.21,17.48
"CLEMENT ELEMENTARY","SAMPSON COUNTY","820320",3.70414e+11,37163,37,28318,"3220 MAXWELL RD","AUTRYVILLE","NC ",-78.5888,35.1047,386,258,30,288,28.2,13.69
"CLEMMONS ELEMENTARY","FORSYTH COUNTY","340348",3.7015e+11,37067,37,27012,"6200 BINGHAM AVE","CLEMMONS","NC ",-80.3754,36.0255,741,106,29,135,44.95,16.48
"CLEMMONS MIDDLE SCHOOL","FORSYTH COUNTY","340350",3.7015e+11,37067,37,27127,"3785 FRATERNITY CHURCH RD","WINSTON-SALEM","NC ",-80.3432,36.026,918,383,59,442,55.23,16.62
"CLEVELAND ECHS","CLEVELAND COUNTY","230322",3.7009e+11,37045,37,28152,"1800 EAST MARION ST","SHELBY","NC ",-81.4875,35.2772,199,112,20,132,9.12,21.82
"CLEVELAND ELEMENTARY","JOHNSTON COUNTY","510328",3.70237e+11,37101,37,27520,"10225 CLEVELAND RD","CLAYTON","NC ",-78.5429,35.5799,847,209,40,249,50,16.94
"CLEVELAND ELEMENTARY","ROWAN COUNTY","800324",3.70405e+11,37159,37,27013,"107 SCHOOL ST","CLEVELAND","NC ",-80.6822,35.731,294,143,27,170,20.5,14.34
"CLEVELAND HIGH","JOHNSTON COUNTY","510327",3.70237e+11,37101,37,27520,"1892 POLENTA RD","CLAYTON","NC ",-78.5001,35.5515,1390,304,70,374,81.42,17.07
"CLEVELAND MIDDLE","JOHNSTON COUNTY","510329",3.70237e+11,37101,37,27529,"2323 CORNWALLIS RD","GARNER","NC ",-78.5488,35.5749,1147,241,49,290,63.5,18.06
"CLIFFDALE ELEMENTARY","CUMBERLAND COUNTY","260338",3.70001e+11,37051,37,28304,"6450 CLIFFDALE RD","FAYETTEVILLE","NC ",-78.9953,35.0594,583,443,58,501,47.94,12.16
"CLIFFSIDE ELEMENTARY SCHOOL","RUTHERFORD COUNTY","810328",3.70408e+11,37161,37,28024,"4016 US HWY 221A","CLIFFSIDE","NC ",-81.7698,35.2467,355,267,21,288,23.3,15.24
"CLINTON HIGH","SAMPSON COUNTY","821308",3.70093e+11,37163,37,28328,"340 INDIAN TOWN RD","CLINTON","NC ",-78.3291,34.9738,814,NA,NA,NA,52.4,15.53
"CLOVER GARDEN","ALAMANCE COUNTY","01C000",3.70012e+11,37001,37,27217,"2454 ALTAMHAW UNION RIDGE RD","BURLINGTON","NC ",-79.4711,36.187,555,123,53,176,29.66,18.71
"CLOVERLEAF ELEMENTARY","IREDELL COUNTY","490319",3.70231e+11,37097,37,28625,"300 JAMES FARM RD","STATESVILLE","NC ",-80.8626,35.8233,767,464,46,510,46.63,16.45
"CLUB BOULEVARD ELEMENTARY","DURHAM COUNTY","320318",3.70126e+11,37063,37,27704,"400 WEST CLUB BLVD","DURHAM","NC ",-78.8967,36.0193,523,282,32,314,33.3,15.71
"CLYDE CAMPBELL ELEMENTARY","CATAWBA COUNTY","180336",3.70069e+11,37035,37,28601,"2121 35TH AVE DR NE","HICKORY","NC ",-81.2866,35.7777,531,186,20,206,32,16.59
"CLYDE ELEMENTARY","HAYWOOD COUNTY","440328",3.70204e+11,37087,37,28721,"4182 OLD CLYDE RD","CLYDE","NC ",-82.8949,35.5326,483,301,29,330,35,13.8
"CLYDE ERWIN ELEMENTARY","ONSLOW COUNTY","670312",3.70345e+11,37133,37,28540,"323 NEW RIVER DR","JACKSONVILLE","NC ",-77.4125,34.7558,496,314,46,360,32.5,15.26
"COASTAL ACADEMY FOR TECHNOLOGY AND SCIEN","CARTERET COUNTY",NA,3.70005e+11,37031,37,28557,"1108 BRIDGES ST","MOREHEAD CITY","NC ",-76.7174,34.7233,43,40,0,40,3.22,13.35
"COATS-ERWIN MIDDLE","HARNETT COUNTY","430330",3.70201e+11,37085,37,28334,"2833 NC HWY 55E","DUNN","NC ",-78.6605,35.3733,710,419,57,476,48.88,14.53
"COATS ELEMENTARY","HARNETT COUNTY","430328",3.70201e+11,37085,37,27521,"585 BRICK MILL RD","COATS","NC ",-78.6797,35.4002,703,434,56,490,51.12,13.75
"COCHRANE COLLEGIATE ACADEMY","MECKLENBURG COUNTY","600341",3.70297e+11,37119,37,28215,"6200 STARHAVEN DR","CHARLOTTE","NC ",-80.7501,35.2465,986,816,39,855,63.19,15.6
"CODDLE CREEK ELEMENTARY","IREDELL COUNTY","490318",3.70231e+11,37097,37,28115,"484 PRESBYTERIAN RD","MOORESVILLE","NC ",-80.8125,35.5182,515,113,28,141,32.4,15.9
"COKER-WIMBERLY ELEMENTARY","EDGECOMBE COUNTY","330312",3.70132e+11,37065,37,27809,"1619 NC 97 WEST","BATTLEBORO","NC ",-77.604,35.9774,412,377,32,409,26.5,15.55
"COLERAIN ELEMENTARY","BERTIE COUNTY","080360",3.70036e+11,37015,37,27924,"202 NORTH ACADEMY ST","COLERAIN","NC ",-76.7719,36.1994,217,198,16,214,17,12.76
"COLERIDGE ELEMENTARY","RANDOLPH COUNTY","760316",3.70378e+11,37151,37,27316,"4528 NC HWY 22 SOUTH","RAMSEUR","NC ",-79.6172,35.6453,351,184,35,219,26,13.5
"COLFAX ELEMENTARY","GUILFORD COUNTY","410346",3.70192e+11,37081,37,27235,"9112 WEST MARKET ST","COLFAX","NC ",-80.0071,36.1083,617,183,47,230,40.28,15.32
"COLLABORATIVE COLLEGE FOR TECHNOLOGY","IREDELL COUNTY","490320",3.70231e+11,37097,37,28677,"500 WEST BROAD ST","STATESVILLE","NC ",-80.8931,35.7835,201,63,19,82,9.5,21.16
"COLLEGE LAKES ELEMENTARY","CUMBERLAND COUNTY","260340",3.70001e+11,37051,37,28311,"4963 ROSEHILL RD","FAYETTEVILLE","NC ",-78.8992,35.1279,405,237,42,279,34,11.91
"COLLEGE PARK ELEMENTARY","NEW HANOVER COUNTY","650316",3.70333e+11,37129,37,28403,"5001 ORIOLE DR","WILMINGTON","NC ",-77.8639,34.2366,484,330,50,380,38.22,12.66
"COLLEGE PREP AND LEADERSHIP ACADEMY","GUILFORD COUNTY","41H000",3.70033e+11,37081,37,27409,"300 HWY 68 SOUTH","GREENSBORO","NC ",-79.9594,36.0709,155,93,7,100,13,11.92
"COLLETTSVILLE SCHOOL","CALDWELL COUNTY","140308",3.70058e+11,37027,37,28611,"4690 COLLETTSVILLE SCHOOL RD","COLLETTSVILLE","NC ",-81.6728,35.927,348,183,24,207,20.69,16.82
"COLLINSWOOD LANGUAGE ACADEMY","MECKLENBURG COUNTY","600344",3.70297e+11,37119,37,28209,"4000 APPLEGATE RD","CHARLOTTE","NC ",-80.8715,35.1847,718,333,47,380,46.59,15.41
"COLTRANE-WEBB ELEMENTARY","CABARRUS COUNTY","130311",3.70053e+11,37025,37,28025,"61 SPRING ST NW","CONCORD","NC ",-80.5857,35.4113,473,223,29,252,30.1,15.71
"COLUMBIA HIGH","TYRRELL COUNTY","890304",3.70459e+11,37177,37,27925,"902 MAIN ST","COLUMBIA","NC ",-76.2455,35.9191,139,62,18,80,16.56,8.39
"COLUMBIA MIDDLE","TYRRELL COUNTY","890306",3.70459e+11,37177,37,27925,"920 MAIN ST","COLUMBIA","NC ",-76.2472,35.9188,128,77,21,98,9.75,13.13
"COLUMBUS CHARTER SCHOOL","COLUMBUS COUNTY","24N000",3.70014e+11,37047,37,28472,"35 BACON'S WAY","WHITEVILLE","NC ",-78.7011,34.3461,834,188,165,353,40.7,20.49
"COMBS ELEMENTARY","WAKE COUNTY","920376",3.70472e+11,37183,37,27606,"2001 LORIMER RD","RALEIGH","NC ",-78.7015,35.7745,912,262,38,300,58.77,15.52
"COMFORT ELEMENTARY","JONES COUNTY","520308",3.7024e+11,37103,37,28522,"4384 HWY 41 WEST","COMFORT","NC ",-77.5119,35.0064,144,120,13,133,11,13.09
"COMMONWEALTH HIGH","MECKLENBURG COUNTY","60U000",3.70038e+11,37119,37,28202,"TBD","TBD","NC ",-80.7583,35.2095,NA,NA,NA,NA,NA,NA
"COMMUNITY CHARTER SCHOOL","MECKLENBURG COUNTY","60A000",3.70003e+11,37119,37,28204,"510 SOUTH TORRENCE ST","CHARLOTTE","NC ",-80.8334,35.2103,150,32,48,80,10.78,13.91
"COMMUNITY HIGH SCHOOL","BUNCOMBE COUNTY","110303",3.70045e+11,37021,37,28778,"235 OLD US 70","SWANNANOA","NC ",-82.4042,35.6028,134,108,9,117,17.55,7.64
"COMMUNITY HOUSE MIDDLE","MECKLENBURG COUNTY","600345",3.70297e+11,37119,37,28277,"9500 COMMUNITY HOUSE RD","CHARLOTTE","NC ",-80.824,35.0361,1638,192,52,244,75.98,21.56
"COMMUNITY SCHOOL OF DAVIDSON","MECKLENBURG COUNTY","60I000",3.70014e+11,37119,37,28036,"404 ARMOUR ST","DAVIDSON","NC ",-80.8497,35.5081,1297,16,32,48,90.18,14.38
"CONCORD HIGH","CABARRUS COUNTY","130314",3.70053e+11,37025,37,28025,"481 BURRAGE RD NE","CONCORD","NC ",-80.5822,35.4337,1217,529,103,632,76.91,15.82
"CONCORD MIDDLE","CABARRUS COUNTY","130313",3.70053e+11,37025,37,28025,"1500 GOLD RUSH DR","CONCORD","NC ",-80.5524,35.4219,914,576,68,644,63.5,14.39
"CONCRETE ROSES STEM ACADEMY","MECKLENBURG COUNTY",NA,3.70037e+11,37119,37,28277,"TBD","TBD","NC ",-80.7522,35.1569,NA,NA,NA,NA,NA,NA
"CONN ELEMENTARY","WAKE COUNTY","920380",3.70472e+11,37183,37,27604,"1220 BROOKSIDE DR","RALEIGH","NC ",-78.6231,35.7959,605,253,31,284,48.5,12.47
"CONOVER SPECIAL EDUCATION","CATAWBA COUNTY","182304",3.70336e+11,37035,37,28613,"108 7TH ST PLACE SW","CONOVER","NC ",-81.2207,35.7015,138,83,11,94,20.75,6.65
"CONTENTNEA-SAVANNAH SCHOOL","LENOIR COUNTY","540308",3.70261e+11,37107,37,28501,"3400 FERRELL RD","KINSTON","NC ",-77.5209,35.32,795,555,72,627,50.5,15.74
"CONWAY MIDDLE","NORTHAMPTON COUNTY","660308",3.70342e+11,37131,37,27820,"400 EAST MAIN ST","CONWAY","NC ",-77.2238,36.4383,393,295,20,315,26,15.12
"COOK ELEMENTARY","FORSYTH COUNTY","340351",3.7015e+11,37067,37,27195,"920 11TH ST NW","WINSTON-SALEM","NC ",-80.2555,36.1087,253,248,2,250,24.6,10.28
"COOL SPRING ELEMENTARY","IREDELL COUNTY","490324",3.70231e+11,37097,37,27013,"1969 MOCKSVILLE HWY","CLEVELAND","NC ",-80.7327,35.8463,405,165,45,210,25.85,15.67
"COOLEEMEE ELEMENTARY","DAVIE COUNTY","300308",3.70117e+11,37059,37,27014,"136 MARGINAL ST","COOLEEMEE","NC ",-80.5528,35.8156,469,333,40,373,30.9,15.18
"COOPER ELEMENTARY","JOHNSTON COUNTY","510330",3.70237e+11,37101,37,27520,"849 NORTH MIAL ST","CLAYTON","NC ",-78.4519,35.6555,571,315,26,341,45,12.69
"COOPERS ELEMENTARY","NASH COUNTY","640324",3.70327e+11,37127,37,27822,"6833 NC HWY 58","ELM CITY","NC ",-77.9479,35.8849,604,275,49,324,35.5,17.01
"COPELAND ELEMENTARY","SURRY COUNTY","860308",3.70441e+11,37171,37,27017,"948 COPELAND SCHOOL RD","DOBSON","NC ",-80.649,36.3296,347,239,24,263,23.75,14.61
"CORDOVA SCHOOL","RICHMOND COUNTY","770312",3.70387e+11,37153,37,28330,"194 CHURCH ST","CORDOVA","NC ",-79.8192,34.9123,71,61,7,68,12.83,5.53
"CORINTH-HOLDERS ELEMENTARY","JOHNSTON COUNTY","510332",3.70237e+11,37101,37,27597,"3976 NC 231","ZEBULON","NC ",-78.301,35.7354,550,330,47,377,36.48,15.08
"CORINTH HOLDERS HIGH","JOHNSTON COUNTY","510333",3.70237e+11,37101,37,27591,"6875 APPLEWHITE RD","WENDELL","NC ",-78.3378,35.7248,1534,334,60,394,86.39,17.76
"CORNATZER ELEMENTARY","DAVIE COUNTY","300310",3.70117e+11,37059,37,27028,"552 CORNATZER RD","MOCKSVILLE","NC ",-80.494,35.8974,372,204,25,229,28.82,12.91
"CORNELIUS ELEMENTARY","MECKLENBURG COUNTY","600346",3.70297e+11,37119,37,28031,"21126 CATAWBA AVE","CORNELIUS","NC ",-80.8642,35.4817,584,158,15,173,34.66,16.85
"CORNERSTONE CHARTER ACADEMY-CFA","GUILFORD COUNTY","41G000",3.70033e+11,37081,37,27455,"2535 NEW GARDEN EAST","GREENSBORO","NC ",-79.827,36.1343,645,34,52,86,33.73,19.12
"CORRIHER LIPE MIDDLE","ROWAN COUNTY","800328",3.70405e+11,37159,37,28088,"214 WEST RICE ST","LANDIS","NC ",-80.6151,35.5466,537,291,45,336,35.5,15.13
"CORVIAN COMMUNITY SCHOOL","MECKLENBURG COUNTY","60M000",3.70033e+11,37119,37,28262,"9501 DAVID TAYLOR DR","CHARLOTTE","NC ",-80.7564,35.323,439,6,6,12,24.31,18.06
"COSTNER ELEMENTARY","GASTON COUNTY","360376",3.70162e+11,37071,37,28034,"353 OLD 277 LOOP HWY","DALLAS","NC ",-81.2271,35.3274,581,263,37,300,32.6,17.82
"COTSWOLD ELEMENTARY","MECKLENBURG COUNTY","600349",3.70297e+11,37119,37,28211,"300 GREENWICH RD","CHARLOTTE","NC ",-80.7975,35.1791,813,265,35,300,49.05,16.57
"COULWOOD MIDDLE","MECKLENBURG COUNTY","600351",3.70297e+11,37119,37,28214,"500 KENTBERRY DR","CHARLOTTE","NC ",-80.9447,35.3039,725,526,67,593,45.3,16
"COURTNEY ELEMENTARY","YADKIN COUNTY","990308",3.70504e+11,37197,37,27055,"2529 COURTNEYHUNTSVILLE RD","YADKINVILLE","NC ",-80.6066,36.0652,294,166,25,191,19.75,14.89
"COVE CREEK ELEMENTARY","WATAUGA COUNTY","950316",3.70483e+11,37189,37,28692,"930 VANDERPOOL RD","VILAS","NC ",-81.7487,36.2595,286,133,40,173,27.6,10.36
"COVINGTON STREET ELEMENTARY","SCOTLAND COUNTY","830312",3.7042e+11,37165,37,28352,"615 WEST COVINGTON ST","LAURINBURG","NC ",-79.4696,34.773,297,188,10,198,20.21,14.7
"COX MILL ELEMENTARY","CABARRUS COUNTY","130319",3.70053e+11,37025,37,28027,"1450 COX MILL RD","CONCORD","NC ",-80.7324,35.3935,1159,64,27,91,65.7,17.64
"COX MILL HIGH SCHOOL","CABARRUS COUNTY","130307",3.70053e+11,37025,37,28027,"1355 COX MILL RD","CONCORD","NC ",-80.7286,35.3951,1388,203,67,270,73.75,18.82
"CRAIN'S CREEK MIDDLE","MOORE COUNTY","630317",3.70309e+11,37125,37,28327,"4625 UNION CHURCH RD","CARTHAGE","NC ",-79.2849,35.2721,418,193,13,206,26.56,15.74
"CRAMERTON MIDDLE","GASTON COUNTY","360380",3.70162e+11,37071,37,28032,"601 CRAMER MOUNTAIN RD","CRAMERTON","NC ",-81.0867,35.2231,869,198,44,242,44.35,19.59
"CRANBERRY MIDDLE","AVERY COUNTY","060310",3.7003e+11,37011,37,28622,"6230 NORTH HWY 19E","ELK PARK","NC ",-81.9641,36.1473,212,114,27,141,16.16,13.12
"CRAVEN EARLY COLLEGE HIGH","CRAVEN COUNTY","250314",3.70331e+11,37049,37,28562,"800 COLLEGE COURT","NEW BERN","NC ",-77.1023,35.1116,171,51,6,57,12.45,13.73
"CREECH ROAD ELEMENTARY","WAKE COUNTY","920384",3.70472e+11,37183,37,27529,"450 CREECH RD","GARNER","NC ",-78.601,35.7149,613,443,51,494,50.2,12.21
"CREEDMOOR ELEMENTARY","GRANVILLE COUNTY","390316",3.7018e+11,37077,37,27522,"305 EAST WILTON AVE","CREEDMOOR","NC ",-78.6783,36.1233,400,240,39,279,25.53,15.67
"CREEKSIDE ELEMENTARY","CRAVEN COUNTY","250316",3.70331e+11,37049,37,28562,"2790 LANDSCAPE DR","NEW BERN","NC ",-77.0217,35.0269,602,115,50,165,35.5,16.96
"CREEKSIDE ELEMENTARY","DURHAM COUNTY","320319",3.70126e+11,37063,37,27707,"5321 EPHESUS CHURCH RD","DURHAM","NC ",-78.9944,35.9287,869,345,44,389,58.5,14.85
"CREEKSIDE ELEMENTARY","PITT COUNTY","740330",3.70001e+11,37147,37,28590,"431 FORLINES RD","WINTERVILLE","NC ",-77.4226,35.5364,626,310,30,340,45.67,13.71
"CREST HIGH","CLEVELAND COUNTY","230324",3.7009e+11,37045,37,28152,"800 OLD BOILING SPRINGS","SHELBY","NC ",-81.6099,35.2716,1244,560,57,617,87.71,14.18
"CREST MIDDLE","CLEVELAND COUNTY","230328",3.7009e+11,37045,37,28150,"315 BEAVERDAM CHURCH RD","SHELBY","NC ",-81.6188,35.2778,949,495,53,548,63.62,14.92
"CRESTDALE MIDDLE","MECKLENBURG COUNTY","600353",3.70297e+11,37119,37,28105,"940 SAM NEWELL RD","MATTHEWS","NC ",-80.7181,35.1287,847,172,28,200,43.58,19.44
"CRESWELL ELEMENTARY","WASHINGTON COUNTY","940306",3.7048e+11,37187,37,27928,"200 SOUTH SEVENTH ST","CRESWELL","NC ",-76.3968,35.87,208,137,37,174,14.6,14.25
"CRESWELL HIGH","WASHINGTON COUNTY","940308",3.7048e+11,37187,37,27928,"115 WEST MIDDLE ST","CRESWELL","NC ",-76.3959,35.8689,173,90,13,103,17,10.18
"CROATAN HIGH","CARTERET COUNTY","160314",3.70063e+11,37031,37,28570,"1 COUGAR LN","NEWPORT","NC ",-76.8955,34.748,903,177,45,222,55,16.42
"CROFT COMMUNITY ELEMENTARY","MECKLENBURG COUNTY","600418",3.70297e+11,37119,37,28269,"4911 HUCKS RD","CHARLOTTE","NC ",-80.8047,35.3465,704,230,53,283,37.53,18.76
"CROSS CREEK EARLY COLLEGE","CUMBERLAND COUNTY","260354",3.70001e+11,37051,37,28301,"1200 MURCHISON RD","FAYETTEVILLE","NC ",-78.8936,35.071,244,105,35,140,16.9,14.44
"CROSSCREEK CHARTER SCHOOL","FRANKLIN COUNTY","35A000",3.70012e+11,37069,37,27549,"306 SANDALWOOD AVE","LOUISBURG","NC ",-78.2932,36.0947,180,26,0,26,11.53,15.61
"CROSSNORE ACADEMY","AVERY COUNTY","060316",3.70008e+11,37011,37,28616,"129 ALLEN CIRCLE","CROSSNORE","NC ",-81.9297,36.0216,91,74,2,76,14.98,6.07
"CROSSNORE ELEMENTARY","AVERY COUNTY","060316",3.7003e+11,37011,37,28616,"1000 WALT CLARK RD","CROSSNORE","NC ",-81.9259,36.0258,211,86,31,117,16.5,12.79
"CROSSROADS CHARTER HIGH","MECKLENBURG COUNTY","60H000",3.70012e+11,37119,37,28213,"5500 NORTH TRYON STEET","CHARLOTTE","NC ",-80.7737,35.2612,202,180,1,181,14.36,14.07
"CROWN POINT ELEMENTARY","MECKLENBURG COUNTY","600352",3.70297e+11,37119,37,28105,"3335 SAM NEWELL RD","MATTHEWS","NC ",-80.715,35.1599,696,342,54,396,41.72,16.68
"CS BROWN HIGH","HERTFORD COUNTY","460340",3.70216e+11,37091,37,27986,"102 CSB DR","WINTON","NC ",-76.9331,36.3876,32,24,2,26,7,4.57
"CULBRETH MIDDLE","ORANGE COUNTY","681322",3.70072e+11,37135,37,27516,"225 CULBRETH RD","CHAPEL HILL","NC ",-79.0675,35.8898,696,140,23,163,55.13,12.62
"CULLOWHEE VALLEY SCHOOL","JACKSON COUNTY","500304",3.70234e+11,37099,37,28723,"240 WISDOM DR","CULLOWHEE","NC ",-83.1686,35.2592,597,300,52,352,43.47,13.73
"CUMBERLAND INTERNATIONAL EARLY COLLEGEHS","CUMBERLAND COUNTY","260347",3.70001e+11,37051,37,28303,"1200 MURCHISON RD","FAYETTEVILLE","NC ",-78.8945,35.0716,169,77,17,94,10.79,15.66
"CUMBERLAND MILLS ELEMENTARY","CUMBERLAND COUNTY","260348",3.70001e+11,37051,37,28306,"2576 HOPE MILLS RD","FAYETTEVILLE","NC ",-78.9681,35.0029,671,424,88,512,43,15.6
"CUMBERLAND ROAD ELEMENTARY","CUMBERLAND COUNTY","260352",3.70001e+11,37051,37,28306,"2700 CUMBERLAND RD","FAYETTEVILLE","NC ",-78.9105,35.0213,404,330,23,353,33.5,12.06
"CURRITUCK COUNTY HIGH","CURRITUCK COUNTY","270306",3.70108e+11,37053,37,27917,"4203 CARATOKE HWY","BARCO","NC ",-75.9691,36.3725,1005,224,0,224,66.06,15.21
"CURRITUCK COUNTY MIDDLE","CURRITUCK COUNTY","270308",3.70108e+11,37053,37,27917,"4263 CARATOKE HWY","BARCO","NC ",-75.9678,36.3709,339,119,0,119,22.78,14.88
"CUTHBERTSON HIGH","UNION COUNTY","900311",3.70462e+11,37179,37,28173,"1400 CUTHBERTSON RD","WAXHAW","NC ",-80.74,34.976,1441,128,45,173,70.8,20.35
"CUTHBERTSON MIDDLE","UNION COUNTY","900310",3.70462e+11,37179,37,28173,"1520 CUTHBERTSON RD","WAXHAW","NC ",-80.7417,34.9743,1338,103,39,142,66.67,20.07
"CYRUS P FRAZIER ELEMENTARY","GUILFORD COUNTY","410376",3.70192e+11,37081,37,27406,"4215 GALWAY DR","GREENSBORO","NC ",-79.8253,36.012,281,238,24,262,24.25,11.59
"D F WALKER ELEMENTARY","CHOWAN COUNTY","210306",3.70084e+11,37041,37,27932,"125 SANDY RIDGE RD","EDENTON","NC ",-76.6541,36.1637,474,274,35,309,34,13.94
"D H CONLEY HIGH","PITT COUNTY","740333",3.70001e+11,37147,37,27858,"2006 WORTHINGTON RD","GREENVILLE","NC ",-77.3248,35.5306,1591,466,62,528,87.89,18.1
"D S JOHNSON ELEMENTARY","EDGECOMBE COUNTY","640326",3.70327e+11,37065,37,27801,"600 NORTH FAIRVIEW RD","ROCKY MOUNT","NC ",-77.7765,35.9366,192,171,8,179,16.5,11.64
"D.C. VIRGO  PREPARATORY ACADEMY","NEW HANOVER COUNTY","650409",3.70333e+11,37129,37,28401,"813 NIXON ST","WILMINGTON","NC ",-77.9403,34.2501,218,184,8,192,15.4,14.16
"DABNEY ELEMENTARY","VANCE COUNTY","910314",3.70465e+11,37181,37,27537,"150 LANNING RD","HENDERSON","NC ",-78.482,36.3305,454,370,39,409,32.5,13.97
"DALTON MCMICHAEL HIGH","ROCKINGHAM COUNTY","790314",3.70399e+11,37157,37,27027,"6845 HWY 135","MAYODAN","NC ",-79.9427,36.4176,970,429,72,501,60.63,16
"DANA ELEMENTARY","HENDERSON COUNTY","450308",3.7021e+11,37089,37,28792,"690 RIDGE RD","HENDERSONVILLE","NC ",-82.3735,35.3385,543,378,61,439,38,14.29
"DANIELS MIDDLE","WAKE COUNTY","920388",3.70472e+11,37183,37,27608,"2816 OBERLIN RD","RALEIGH","NC ",-78.6565,35.8131,1136,401,71,472,67.47,16.84
"DARE COUNTY ALTERNATIVE SCHOOL","DARE COUNTY","280306",3.70111e+11,37055,37,27954,"205 NORTH HWY 64/264","MANTEO","NC ",-75.6718,35.9039,29,19,0,19,8,3.63
"DAVENPORT A+ SCHOOL","CALDWELL COUNTY","140312",3.70058e+11,37027,37,28645,"901 COLLEGE AVE SW","LENOIR","NC ",-81.5397,35.9118,510,321,18,339,33.6,15.18
"DAVID COX ROAD ELEMENTARY","MECKLENBURG COUNTY","600362",3.70297e+11,37119,37,28269,"4215 DAVID COX RD","CHARLOTTE","NC ",-80.8009,35.3368,796,432,90,522,48.51,16.41
"DAVID D JONES ELEMENTARY","GUILFORD COUNTY","410430",3.70192e+11,37081,37,27406,"502 SOUTH ST","GREENSBORO","NC ",-79.7988,36.0601,707,400,32,432,46.33,15.26
"DAVIDSON COUNTY HIGH SCHOOL","DAVIDSON COUNTY","290314",3.70114e+11,37057,37,27292,"2061 EAST HOLLY GROVE RD","LEXINGTON","NC ",-80.1887,35.8171,78,52,8,60,12,6.5
"DAVIDSON EARLY COLLEGE","DAVIDSON COUNTY","290315",3.70114e+11,37057,37,27295,"297 DCCC RD","LEXINGTON","NC ",-80.2966,35.8688,108,50,16,66,4.5,24
"DAVIDSON ELEMENTARY","MECKLENBURG COUNTY","600357",3.70297e+11,37119,37,28036,"635 SOUTH ST","DAVIDSON","NC ",-80.8484,35.4898,725,82,8,90,44.38,16.34
"DAVIDSON RIVER SCHOOL","TRANSYLVANIA COUNTY","880320",3.70453e+11,37175,37,28712,"970 ECUSTA RD","BREVARD","NC ",-82.7042,35.2581,97,75,7,82,9,10.78
"DAVIE COUNTY EARLY COLLEGE HIGH","DAVIE COUNTY","300314",3.70117e+11,37059,37,27028,"1211 SALISBURY RD","MOCKSVILLE","NC ",-80.5555,35.8709,158,43,15,58,5.67,27.87
"DAVIE COUNTY HIGH","DAVIE COUNTY","300312",3.70117e+11,37059,37,27028,"1200 SALISBURY RD","MOCKSVILLE","NC ",-80.5522,35.873,1768,541,84,625,107.15,16.5
"DAVIS-TOWNSEND ELEMENTARY","DAVIDSON COUNTY","290316",3.70114e+11,37057,37,27292,"975 HEATH CHURCH RD","LEXINGTON","NC ",-80.1683,35.8061,534,212,32,244,31.9,16.74
"DAVIS DRIVE ELEMENTARY","WAKE COUNTY","920390",3.70472e+11,37183,37,27519,"2151 DAVIS DR","CARY","NC ",-78.8505,35.7802,986,42,8,50,57.9,17.03
"DAVIS DRIVE MIDDLE","WAKE COUNTY","920391",3.70472e+11,37183,37,27519,"2101 DAVIS DR","CARY","NC ",-78.8507,35.7777,1209,78,17,95,65.11,18.57
"DAWSON ELEMENTARY","HALIFAX COUNTY","420316",3.70195e+11,37083,37,27874,"6878 OLD 125 RD","SCOTLAND NECK","NC ",-77.5269,36.1666,150,141,6,147,11,13.64
"DEEP BRANCH ELEMENTARY","ROBESON COUNTY","780320",3.70393e+11,37155,37,28360,"4045 DEEP BRANCH RD","LUMBERTON","NC ",-79.146,34.6304,NA,NA,NA,NA,26.73,NA
"DEEP RIVER ELEMENTARY","LEE COUNTY","530312",3.70256e+11,37105,37,27330,"4000 DEEP RIVER RD","SANFORD","NC ",-79.1464,35.5933,638,474,48,522,41.22,15.48
"DENTON ELEMENTARY","DAVIDSON COUNTY","290320",3.70114e+11,37057,37,27239,"305 WEST SALISBURY ST","DENTON","NC ",-80.1183,35.6319,386,206,36,242,25.38,15.21
"DEVONSHIRE ELEMENTARY","MECKLENBURG COUNTY","600365",3.70297e+11,37119,37,28215,"6500 BARRINGTON DR","CHARLOTTE","NC ",-80.7465,35.2454,604,550,12,562,37.76,16
"DEYTON ELEMENTARY","MITCHELL COUNTY","610310",3.703e+11,37121,37,28777,"308 HARRIS ST","SPRUCE PINE","NC ",-82.0882,35.9098,258,144,17,161,19.24,13.41
"DHHS OFFICE OF EDUCATION","WAKE COUNTY",NA,3.7e+11,37183,37,27605,"616 OBERLIN RD","RALEIGH","NC ",-78.662,35.793,NA,NA,NA,NA,NA,NA
"DIGGS-LATHAM ELEMENTARY","FORSYTH COUNTY","340430",3.7015e+11,37067,37,27101,"986 HUTTON ST","WINSTON SALEM","NC ",-80.2574,36.0752,462,444,15,459,41.67,11.09
"DILLARD ACADEMY","WAYNE COUNTY","96C000",3.70007e+11,37191,37,27530,"504 WEST ELM ST","GOLDSBORO","NC ",-78.0054,35.3791,199,185,5,190,14.39,13.83
"DILLARD DRIVE ELEMENTARY","WAKE COUNTY","920393",3.70472e+11,37183,37,27606,"5018 DILLARD DR","RALEIGH","NC ",-78.723,35.7526,722,364,37,401,52.6,13.73
"DILLARD DRIVE MIDDLE","WAKE COUNTY","920394",3.70472e+11,37183,37,27606,"5200 DILLARD DR","RALEIGH","NC ",-78.7244,35.7527,1128,471,63,534,69,16.35
"DILLARD MIDDLE","WAYNE COUNTY","960326",3.70488e+11,37191,37,27530,"1101 SOUTH DEVEREAUX ST","GOLDSBORO","NC ",-77.9926,35.3685,637,553,29,582,39.32,16.2
"DILWORTH ELEMENTARY","MECKLENBURG COUNTY","600367",3.70297e+11,37119,37,28203,"405 EAST PARK AVE","CHARLOTTE","NC ",-80.8514,35.2113,609,109,13,122,32.64,18.66
"DISCOVERY HIGH SCHOOL","CATAWBA COUNTY","182700",3.70336e+11,37035,37,28658,"605 NORTH ASHE AVE","NEWTON","NC ",-81.2225,35.6684,132,37,12,49,7.12,18.54
"DISTRICT NO 7 ELEMENTARY","CUMBERLAND COUNTY","260356",3.70001e+11,37051,37,28395,"5721 SMITHFIELD RD","WADE","NC ",-78.7102,35.145,246,112,17,129,18.67,13.18
"DIXON ELEMENTARY","ONSLOW COUNTY","670314",3.70345e+11,37133,37,28445,"130 BETTY DIXON RD","HOLLY RIDGE","NC ",-77.4436,34.5598,905,265,65,330,53.5,16.92
"DIXON HIGH","ONSLOW COUNTY","670320",3.70345e+11,37133,37,28445,"160 DIXON SCHOOL RD","HOLLY RIDGE","NC ",-77.4784,34.588,799,211,58,269,47,17
"DIXON MIDDLE","ONSLOW COUNTY","670318",3.70345e+11,37133,37,28445,"200 DIXON SCHOOL RD","HOLLY RIDGE","NC ",-77.4798,34.585,653,229,52,281,40,16.33
"DIXON ROAD ELEMENTARY","JOHNSTON COUNTY","510334",3.70237e+11,37101,37,27592,"835 DIXON RD","WILLOW SPRINGS","NC ",-78.5943,35.5331,495,161,19,180,34,14.56
"DOBSON ELEMENTARY","SURRY COUNTY","860312",3.70441e+11,37171,37,27017,"400 WEST ATKINS ST","DOBSON","NC ",-80.7264,36.3949,385,235,30,265,24.45,15.75
"DOLE ELEMENTARY","ROWAN COUNTY","800359",3.70405e+11,37159,37,28146,"465 CHOATE RD","SALISBURY","NC ",-80.4251,35.6711,464,389,22,411,34.51,13.45
"DON D STEED ELEMENTARY","HOKE COUNTY","470310",3.70225e+11,37093,37,28376,"800 PHILLIPI CHURCH RD","RAEFORD","NC ",-79.1601,34.9816,685,293,53,346,43.38,15.79
"DONNA L LOFLIN ELEMENTARY","RANDOLPH COUNTY","761321",3.70024e+11,37151,37,27203,"405 SOUTH PARK ST","ASHEBORO","NC ",-79.8192,35.7017,405,297,36,333,32.5,12.46
"DORIS HENDERSON NEWCOMERS SCH","GUILFORD COUNTY","410398",3.70192e+11,37081,37,27410,"411 FRIENDWAY RD","GREENSBORO","NC ",-79.9047,36.0815,243,219,9,228,18.64,13.04
"DOUGLAS BYRD HIGH","CUMBERLAND COUNTY","260322",3.70001e+11,37051,37,28304,"1624 IRELAND DR","FAYETTEVILLE","NC ",-78.9485,35.0308,1173,809,98,907,87.5,13.41
"DOUGLAS BYRD MIDDLE","CUMBERLAND COUNTY","260321",3.70001e+11,37051,37,28304,"1616 IRELAND DR","FAYETTEVILLE","NC ",-78.9487,35.0329,726,542,73,615,56,12.96
"DOUGLAS ELEMENTARY","WAKE COUNTY","920396",3.70472e+11,37183,37,27609,"600 ORTEGA RD","RALEIGH","NC ",-78.6292,35.8404,724,243,14,257,52.5,13.79
"DOUGLASS ACADEMY","NEW HANOVER COUNTY","65C000",3.70034e+11,37129,37,28401,"507 NORTH 6TH ST","WILMINGTON","NC ",-77.9434,34.242,35,28,2,30,2.36,14.83
"DOUGLASS ELEMENTARY","ROCKINGHAM COUNTY","790318",3.70399e+11,37157,37,27288,"1130 CENTER CHURCH RD","EDEN","NC ",-79.779,36.4947,386,236,34,270,27.95,13.81
"DPS HOSPITAL SCHOOL","DURHAM COUNTY","320336",3.70126e+11,37063,37,27710,"DUMC ROOM 3605","DURHAM","NC ",-78.9371,36.0073,59,16,1,17,20,2.95
"DR HUBERT EATON SR ELEM","NEW HANOVER COUNTY","650353",3.70333e+11,37129,37,28405,"6701 GORDON RD","WILMINGTON","NC ",-77.8344,34.2663,568,66,25,91,35.81,15.86
"DR JOHN CODINGTON ELEM","NEW HANOVER COUNTY","650366",3.70333e+11,37129,37,28412,"4321 CAROLINA BEACH RD","WILMINGTON","NC ",-77.9171,34.1664,552,101,34,135,35.6,15.51
"DRAPER ELEMENTARY","ROCKINGHAM COUNTY","790322",3.70399e+11,37157,37,27288,"1719 EAST STADIUM DR","EDEN","NC ",-79.6897,36.5163,215,181,14,195,21.51,10
"DREXEL ELEMENTARY","BURKE COUNTY","120312",3.70048e+11,37023,37,28655,"100 ALTA VISTA ST","MORGANTON","NC ",-81.6044,35.7577,468,280,52,332,31.98,14.63
"DRUID HILLS ACADEMY","MECKLENBURG COUNTY","600374",3.70297e+11,37119,37,28206,"2801 LUCENA AVE","CHARLOTTE","NC ",-80.8243,35.2573,610,581,14,595,49.42,12.34
"DUBLIN PRIMARY","BLADEN COUNTY","090324",3.70039e+11,37017,37,28332,"7048 ALBERT ST","DUBLIN","NC ",-78.7202,34.6549,276,207,19,226,19.6,14.08
"DUDLEY SHOALS ELEMENTARY","CALDWELL COUNTY","140316",3.70058e+11,37027,37,28630,"1500 DUDLEY SHOALS RD","GRANITE FALLS","NC ",-81.3921,35.8559,487,232,31,263,29.34,16.6
"DUNN MIDDLE","HARNETT COUNTY","430332",3.70201e+11,37085,37,28334,"1301 MEADOWLARK RD","DUNN","NC ",-78.6095,35.3301,419,284,34,318,35.89,11.67
"DUPLIN EARLY COLLEGE HIGH","DUPLIN COUNTY","310338",3.7012e+11,37061,37,28349,"212 JAMES SPRUNT DR","KENANSVILLE","NC ",-77.9788,34.9465,152,100,15,115,7.5,20.27
"DURANT ROAD ELEMENTARY","WAKE COUNTY","920398",3.70472e+11,37183,37,27614,"9901 DURANT RD","RALEIGH","NC ",-78.5804,35.9003,968,305,46,351,65.17,14.85
"DURANT ROAD MIDDLE","WAKE COUNTY","920399",3.70472e+11,37183,37,27614,"10401 DURANT RD","RALEIGH","NC ",-78.5881,35.9036,1358,434,75,509,79.16,17.16
"DURHAM'S PERFORMANCE LEARNING CENTER","DURHAM COUNTY","320322",3.70126e+11,37063,37,27703,"401 NORTH DRR ST","DURHAM","NC ",-78.8795,35.9896,233,151,4,155,16.63,14.01
"DURHAM SCHOOL OF THE ARTS","DURHAM COUNTY","320323",3.70126e+11,37063,37,27701,"401 NORTH DUKE ST","DURHAM","NC ",-78.9068,36.0031,1564,530,77,607,104.3,15
"DYNAMIC COMMUNITY CHARTER","WAKE COUNTY","92X000",3.70037e+11,37183,37,27512,"TBD","TBD","NC ",-78.7004,35.8564,NA,NA,NA,NA,NA,NA
"E B AYCOCK MIDDLE","PITT COUNTY","740337",3.70001e+11,37147,37,27858,"1325 RED BANKS RD","GREENVILLE","NC ",-77.3538,35.5869,714,440,30,470,50.5,14.14
"E B FRINK MIDDLE","LENOIR COUNTY","540312",3.70261e+11,37107,37,28551,"102 NORTH MARTIN LUTHER KING J","LA GRANGE","NC ",-77.7931,35.3151,569,304,68,372,35.97,15.82
"E E MILLER ELEMENTARY","CUMBERLAND COUNTY","260398",3.70001e+11,37051,37,28314,"1361 RIM RD","FAYETTEVILLE","NC ",-79.0444,35.0549,549,310,58,368,41.5,13.23
"E E SMITH HIGH","CUMBERLAND COUNTY","260359",3.70001e+11,37051,37,28301,"1800 SEABROOK RD","FAYETTEVILLE","NC ",-78.8956,35.0841,1037,623,82,705,75,13.83
"E E SMITH MIDDLE","DUPLIN COUNTY","310340",3.7012e+11,37061,37,28349,"174 MALLARD ST","KENANSVILLE","NC ",-77.9743,34.958,397,294,42,336,22.5,17.64
"E J HAYES ELEMENTARY","MARTIN COUNTY","580312",3.70288e+11,37117,37,27892,"201 ANDREWS ST","WILLIAMSTON","NC ",-77.0622,35.8468,377,281,23,304,26.1,14.44
"E K POWE ELEMENTARY","DURHAM COUNTY","320363",3.70126e+11,37063,37,27705,"913 9TH ST","DURHAM","NC ",-78.9224,36.013,392,239,15,254,33.1,11.84
"E LAWSON BROWN MIDDLE","DAVIDSON COUNTY","290322",3.70114e+11,37057,37,27360,"1140 KENDALL MILL RD","THOMASVILLE","NC ",-80.1052,35.8487,771,325,71,396,44.5,17.33
"E M ROLLINS ELEMENTARY","VANCE COUNTY","910360",3.70465e+11,37181,37,27536,"1600 SOUTH GARNETT ST","HENDERSON","NC ",-78.4154,36.3202,432,405,24,429,27.42,15.75
"E M YODER ELEMENTARY","ALAMANCE COUNTY","010320",3.70003e+11,37001,37,27302,"301 NORTH CHARLES ST","MEBANE","NC ",-79.2744,36.1002,329,121,13,134,26.81,12.27
"E MELVIN HONEYCUTT ELEMENTARY","CUMBERLAND COUNTY","260397",3.70001e+11,37051,37,28306,"4665 LAKEWOOD DR","FAYETTEVILLE","NC ",-78.9933,35.0013,746,231,60,291,49.5,15.07
"E O YOUNG JR ELEMENTARY","VANCE COUNTY","910346",3.70465e+11,37181,37,27537,"6655 BROAD ST","HENDERSON","NC ",-78.329,36.397,278,253,21,274,22.06,12.6
"EARLY COLLEGE AT GUILFORD","GUILFORD COUNTY","410395",3.70192e+11,37081,37,27410,"5608 WEST FRIENDLY AVE","GREENSBORO","NC ",-79.8901,36.0951,195,15,5,20,8.05,24.22
"EARLY COLLEGE EAST HIGH","CRAVEN COUNTY","250321",3.70331e+11,37049,37,28532,"305 CUNNINGHAM BLVD","HAVELOCK","NC ",-76.8998,34.8803,187,36,10,46,7.09,26.38
"EARLY COLLEGE OF FORSYTH CO","FORSYTH COUNTY","340362",3.7015e+11,37067,37,27103,"2100 SILAS CREEK PRKY","WINSTON SALEM","NC ",-80.2717,36.0688,230,NA,NA,NA,9,25.56
"EASLEY ELEMENTARY","DURHAM COUNTY","320313",3.70126e+11,37063,37,27712,"302 LEBANON CIRCLE","DURHAM","NC ",-78.9268,36.0757,577,139,15,154,35.01,16.48
"EAST ALBEMARLE ELEMENTARY","STANLY COUNTY","840316",3.70432e+11,37167,37,28001,"1813 EAST MAIN ST","ALBEMARLE","NC ",-80.168,35.3509,365,260,25,285,23.83,15.32
"EAST ALEXANDER MIDDLE","ALEXANDER COUNTY","020306",3.70009e+11,37003,37,28636,"1285 WHITE PLAINS RD","HIDDENITE","NC ",-81.1228,35.9297,661,337,76,413,40.83,16.19
"EAST ARCADIA ELEMENTARY","BLADEN COUNTY","090328",3.70039e+11,37017,37,28456,"21451 NC HWY 87 EAST","RIEGELWOOD","NC ",-78.3226,34.4049,127,99,14,113,14.81,8.58
"EAST BEND ELEMENTARY","YADKIN COUNTY","990312",3.70504e+11,37197,37,27018,"205 SCHOOL ST","EAST BEND","NC ",-80.5073,36.2138,256,168,13,181,19.75,12.96
"EAST BLADEN HIGH","BLADEN COUNTY","090330",3.70039e+11,37017,37,28337,"5600 NC HWY 87 EAST","ELIZABETHTOWN","NC ",-78.6988,34.6454,653,407,32,439,46.81,13.95
"EAST BURKE HIGH","BURKE COUNTY","120314",3.70048e+11,37023,37,28612,"3695 EAST BURKE BLVD","CONNELLY SPRINGS","NC ",-81.4821,35.7216,943,414,102,516,58.33,16.17
"EAST BURKE MIDDLE","BURKE COUNTY","120315",3.70048e+11,37023,37,28612,"3519 MILLER BRIDGE RD","CONNELLY SPRINGS","NC ",-81.4818,35.7218,754,368,75,443,45.25,16.66
"EAST CARTERET HIGH","CARTERET COUNTY","160313",3.70063e+11,37031,37,28516,"3263 HWY 70 EAST","BEAUFORT","NC ",-76.6313,34.7817,577,200,42,242,43.7,13.2
"EAST CARY MIDDLE","WAKE COUNTY","920402",3.70472e+11,37183,37,27511,"1111 SE MAYNARD RD","CARY","NC ",-78.7658,35.7792,831,236,30,266,55.09,15.08
"EAST CHAPEL HILL HIGH","ORANGE COUNTY","681314",3.70072e+11,37135,37,27514,"500 WEAVER DAIRY RD","CHAPEL HILL","NC ",-79.0297,35.961,1409,248,49,297,84.87,16.6
"EAST CLAYTON ELEMENTARY","JOHNSTON COUNTY","510336",3.70237e+11,37101,37,27527,"2075 NC HWY 42 EAST","CLAYTON","NC ",-78.4022,35.649,556,108,24,132,39.6,14.04
"EAST COLUMBUS HIGH","COLUMBUS COUNTY","240334",3.70096e+11,37047,37,28450,"32 GATOR LN","LAKE WACCAMAW","NC ",-78.5016,34.3359,495,233,39,272,33.5,14.78
"EAST DAVIDSON HIGH","DAVIDSON COUNTY","290324",3.70114e+11,37057,37,27360,"1408 LAKE RD","THOMASVILLE","NC ",-80.1019,35.8502,965,314,70,384,56.14,17.19
"EAST DUPLIN HIGH","DUPLIN COUNTY","310344",3.7012e+11,37061,37,28518,"394 NORTH NC HWY 111","BEULAVILLE","NC ",-77.7842,34.9392,932,471,63,534,55.94,16.66
"EAST ELEMENTARY","CLEVELAND COUNTY","230334",3.7009e+11,37045,37,28086,"600 CLEVELAND AVE","KINGS MOUNTAIN","NC ",-81.3301,35.2493,253,186,13,199,20.3,12.46
"EAST ELEMENTARY","UNION COUNTY","900306",3.70462e+11,37179,37,28112,"515 ELIZABETH AVE","MONROE","NC ",-80.5324,34.9779,461,438,10,448,49.87,9.24
"EAST END ELEMENTARY","MARTIN COUNTY","580316",3.70288e+11,37117,37,27871,"1121 THIRD ST EXTENSION","ROBERSONVILLE","NC ",-77.2424,35.8228,296,266,27,293,23.9,12.38
"EAST FORSYTH HIGH","FORSYTH COUNTY","340364",3.7015e+11,37067,37,27284,"2500 WEST MOUNTAIN ST","KERNERSVILLE","NC ",-80.1505,36.1175,1843,550,99,649,98.9,18.63
"EAST FORSYTH MIDDLE SCHOOL","FORSYTH COUNTY","340366",3.7015e+11,37067,37,27284,"810 BAGLEY DR","KERNERSVILLE","NC ",-80.1293,36.1339,764,500,44,544,51.27,14.9
"EAST FRANKLIN ELEMENTARY","MACON COUNTY","560316",3.70276e+11,37113,37,28734,"100 WATAUGA ST","FRANKLIN","NC ",-83.3716,35.1894,421,296,38,334,26,16.19
"EAST GARNER ELEMENTARY","WAKE COUNTY","920403",3.70472e+11,37183,37,27529,"5545 JONES SAUSAGE RD","GARNER","NC ",-78.5867,35.7077,591,407,44,451,43,13.74
"EAST GARNER MIDDLE","WAKE COUNTY","920404",3.70472e+11,37183,37,27529,"6301 JONES SAUSAGE RD","GARNER","NC ",-78.5859,35.7024,1334,695,138,833,79.67,16.74
"EAST GASTON HIGH","GASTON COUNTY","360390",3.70162e+11,37071,37,28120,"1744 LN RD","MOUNT HOLLY","NC ",-81.0756,35.3154,1227,439,95,534,72.43,16.94
"EAST HENDERSON HIGH","HENDERSON COUNTY","450316",3.7021e+11,37089,37,28726,"110 OLD UPWARD RD","EAST FLAT ROCK","NC ",-82.424,35.2976,909,381,60,441,65.5,13.88
"EAST HOKE MIDDLE","HOKE COUNTY","470332",3.70225e+11,37093,37,28376,"4702 FAYETTEVILLE RD","RAEFORD","NC ",-79.1711,35.0064,745,388,77,465,40,18.63
"EAST IREDELL ELEMENTARY","IREDELL COUNTY","490326",3.70231e+11,37097,37,28625,"400 EAST ELEMENTARY RD","STATESVILLE","NC ",-80.8374,35.8044,787,517,61,578,50.72,15.52
"EAST IREDELL MIDDLE","IREDELL COUNTY","490327",3.70231e+11,37097,37,28625,"590 CHESTNUT GROVE RD","STATESVILLE","NC ",-80.7887,35.8376,515,300,48,348,34.95,14.74
"EAST LEE MIDDLE","LEE COUNTY","530314",3.70256e+11,37105,37,27330,"1337 BROADWAY RD","SANFORD","NC ",-79.1142,35.46,710,411,46,457,43.34,16.38
"EAST LINCOLN HIGH","LINCOLN COUNTY","550320",3.70268e+11,37109,37,28037,"6471 HWY 73","DENVER","NC ",-81.0258,35.4541,885,230,61,291,47.69,18.56
"EAST LINCOLN MIDDLE","LINCOLN COUNTY","550322",3.70268e+11,37109,37,28080,"4137 HWY 73","IRON STATION","NC ",-81.0942,35.4756,678,183,43,226,41.59,16.3
"EAST MCDOWELL JUNIOR HIGH","MCDOWELL COUNTY","590310",3.70294e+11,37111,37,28752,"676 STATE ST","MARION","NC ",-81.9957,35.6872,641,359,54,413,41.69,15.38
"EAST MECKLENBURG HIGH","MECKLENBURG COUNTY","600377",3.70297e+11,37119,37,28212,"6800 MONROE RD","CHARLOTTE","NC ",-80.758,35.176,1846,992,136,1128,111.69,16.53
"EAST MIDDLE","MONTGOMERY COUNTY","620314",3.70306e+11,37123,37,27209,"1834 SOUTH US 220 ALT HWY","BISCOE","NC ",-79.783,35.4156,522,NA,NA,NA,32.66,15.98
"EAST MILLBROOK MIDDLE","WAKE COUNTY","920408",3.70472e+11,37183,37,27616,"3801 SPRING FOREST RD","RALEIGH","NC ",-78.5776,35.8564,992,531,92,623,66.6,14.89
"EAST MONTGOMERY HIGH","MONTGOMERY COUNTY","620316",3.70306e+11,37123,37,27209,"157 EAGLE LN","BISCOE","NC ",-79.7772,35.3394,619,NA,NA,NA,40.68,15.22
"EAST MOORESVILLE INTERMEDIATE","IREDELL COUNTY","491303",3.70312e+11,37097,37,28115,"1711 LANDIS HWY","MOORESVILLE","NC ",-80.7735,35.6005,653,204,58,262,33.63,19.42
